{"type":"FeatureCollection","features":[
{"type":"Feature","geometry":{"type":"Point","coordinates":[-1.7858762,51.5656526]},"properties":{"name":"Swindon","naptan:AtcoCode":"9100SDON","network":"National Rail","network:wikidata":"Q26334","operator":"First Great Western","platforms":"4","public_transport":"station","railway":"station","ref:crs":"SWI","toilets:wheelchair":"yes","train":"yes","wheelchair":"yes","wikidata":"Q3244572","wikipedia":"en:Swindon railway station"}},
{"type":"Feature","geometry":{"type":"Point","coordinates":[-0.0269749,52.0532089]},"properties":{"name":"Royston","naptan:AtcoCode":"9100ROYSTON","network":"National Rail","public_transport":"station","railway":"station","ref:crs":"RYS","wikidata":"Q2034540","wikipedia":"en:Royston railway station"}},
{"type":"Feature","geometry":{"type":"Point","coordinates":[-1.5049707,50.8550478]},"properties":{"name":"Beaulieu Road","naptan:AtcoCode":"9100BLIEURD","network":"National Rail","postal_code":"SO42 7YQ","public_transport":"station","railway":"station","ref:crs":"BEU","wikidata":"Q3095938","wikipedia":"en:Beaulieu Road railway station"}},
{"type":"Feature","geometry":{"type":"Point","coordinates":[-1.610086,50.7846689]},"properties":{"name":"Sway","naptan:AtcoCode":"9100SWAY","network":"National Rail","public_transport":"station","railway":"station","ref:crs":"SWY","wikidata":"Q2441290","wikipedia":"en:Sway railway station"}},
{"type":"Feature","geometry":{"type":"Point","coordinates":[-1.6576697,50.7557623]},"properties":{"name":"New Milton","naptan:AtcoCode":"9100NMILTON","network":"National Rail","railway":"station","ref:crs":"NWM","wikidata":"Q1913828","wikipedia":"en:New Milton railway station"}},
{"type":"Feature","geometry":{"type":"Point","coordinates":[-1.5475333,52.3993806]},"properties":{"name":"Canley","naptan:AtcoCode":"9100CANLEY","network":"National Rail","public_transport":"station","railway":"station","ref:crs":"CNL","source":"NPE","west_midlands_fare_zone":"5","wikidata":"Q2317360","wikipedia":"en:Canley railway station"}},
{"type":"Feature","geometry":{"type":"Point","coordinates":[-1.480623,53.6628109]},"properties":{"name":"Sandal and Agbrigg","naptan:AtcoCode":"9100SABR","network":"National Rail","public_transport":"station","railway":"station","ref:crs":"SNA","wikidata":"Q2018294","wikipedia":"en:Sandal and Agbrigg railway station"}},
{"type":"Feature","geometry":{"type":"Point","coordinates":[-0.6762814,52.3037832]},"properties":{"name":"Wellingborough","naptan:AtcoCode":"9100WLNGBRO","network":"National Rail","network:wikidata":"Q26334","public_transport":"station","railway":"station","ref:crs":"WEL","train":"yes","wheelchair":"yes","wikidata":"Q2562129","wikimedia_commons":"Category:Wellingborough railway station","wikipedia":"en:Wellingborough railway station"}},
{"type":"Feature","geometry":{"type":"Point","coordinates":[-1.2143782,53.853331]},"properties":{"name":"Ulleskelf","naptan:AtcoCode":"9100ULESKLF","network":"National Rail","public_transport":"station","railway":"station","ref:crs":"ULL","source":"npe","wikidata":"Q951589","wikipedia":"en:Ulleskelf railway station"}},
{"type":"Feature","geometry":{"type":"Point","coordinates":[-1.1800228,53.5720808]},"properties":{"internet_access:fee":"yes","name":"Adwick","naptan:AtcoCode":"9100ADWICK","network":"National Rail","railway":"station","ref:crs":"AWK","source":"NPE","wheelchair":"yes","wikidata":"Q2325641","wikipedia":"en:Adwick railway station"}},
{"type":"Feature","geometry":{"type":"Point","coordinates":[-1.427499,53.4986826]},"properties":{"name":"Elsecar","naptan:AtcoCode":"9100ELSC","network":"National Rail","platforms":"2","railway":"station","ref:crs":"ELR","source":"NPE","wikidata":"Q3287228","wikipedia":"en:Elsecar railway station"}},
{"type":"Feature","geometry":{"type":"Point","coordinates":[-1.5320346,53.5442059]},"properties":{"name":"Dodworth","naptan:AtcoCode":"9100DODWRTH","network":"National Rail","public_transport":"station","railway":"station","ref:crs":"DOD","source":"NPE","wikidata":"Q1996156","wikipedia":"en:Dodworth railway station"}},
{"type":"Feature","geometry":{"type":"Point","coordinates":[-1.305111,50.8835729]},"properties":{"name":"Bursledon","naptan:AtcoCode":"9100BURSLDN","network":"National Rail","platforms":"1","public_transport":"station","railway":"station","ref:crs":"BUO","wikidata":"Q2219439","wikipedia":"en:Bursledon railway station"}},
{"type":"Feature","geometry":{"type":"Point","coordinates":[-0.4143441,51.3729077]},"properties":{"name":"Walton-on-Thames","naptan:AtcoCode":"9100WONT","network":"National Rail","operator":"South Western Railway","public_transport":"station","railway":"station","ref:crs":"WAL","wheelchair":"yes","wikidata":"Q2183741","wikipedia":"en:Walton-on-Thames railway station"}},
{"type":"Feature","geometry":{"type":"Point","coordinates":[-1.8392253,52.5285663]},"properties":{"name":"Erdington","naptan:AtcoCode":"9100ERDNGTN","network":"National Rail","public_transport":"station","railway":"station","ref:crs":"ERD","west_midlands_fare_zone":"3","wheelchair":"yes","wikidata":"Q2415516","wikipedia":"en:Erdington railway station"}},
{"type":"Feature","geometry":{"type":"Point","coordinates":[-1.8324576,52.5357946]},"properties":{"name":"Chester Road","naptan:AtcoCode":"9100CHSRD","network":"National Rail","public_transport":"station","railway":"station","ref:crs":"CRD","west_midlands_fare_zone":"3","wheelchair":"yes","wikidata":"Q2405727","wikipedia":"en:Chester Road railway station"}},
{"type":"Feature","geometry":{"type":"Point","coordinates":[-1.8252548,52.5647207]},"properties":{"name":"Sutton Coldfield","naptan:AtcoCode":"9100SUTCO","network":"National Rail","public_transport":"station","railway":"station","ref:crs":"SUT","west_midlands_fare_zone":"4","wikidata":"Q525739","wikipedia":"en:Sutton Coldfield railway station"}},
{"type":"Feature","geometry":{"type":"Point","coordinates":[-1.8527077,52.5153876]},"properties":{"name":"Gravelly Hill","naptan:AtcoCode":"9100GRAVLYH","network":"National Rail","public_transport":"station","railway":"station","ref:crs":"GVH","west_midlands_fare_zone":"2","wikidata":"Q2098592","wikipedia":"en:Gravelly Hill railway station"}},
{"type":"Feature","geometry":{"type":"Point","coordinates":[-2.2130325,53.4711176]},"properties":{"description":"Ardwick Station has a very limited service. Two trains a day run towards the city on Monday to Friday mornings, and two trains away from the city in the evening. No service at weekends.","name":"Ardwick","name:ur":"آرڈ وک","naptan:AtcoCode":"9100ARDWICK","network":"National Rail","public_transport":"station","railway":"station","ref:crs":"ADK","wikidata":"Q4788330","wikipedia":"en:Ardwick railway station"}},
{"type":"Feature","geometry":{"type":"Point","coordinates":[-1.4932507,50.9927043]},"properties":{"name":"Romsey","naptan:AtcoCode":"9100ROMSEY","network":"National Rail","public_transport":"station","railway":"station","ref:crs":"ROM","wheelchair":"limited","wikidata":"Q1872195","wikipedia":"en:Romsey railway station"}},
{"type":"Feature","geometry":{"type":"Point","coordinates":[-1.5468958,51.033863]},"properties":{"name":"Mottisfont & Dunbridge","naptan:AtcoCode":"9100MOTFONT","network":"National Rail","public_transport":"station","railway":"station","ref:crs":"DBG","wikidata":"Q6918669","wikipedia":"en:Mottisfont & Dunbridge railway station"}},
{"type":"Feature","geometry":{"type":"Point","coordinates":[-0.2263134,51.50607]},"properties":{"fare_zone":"2","line":"Hammersmith & City;Circle","name":"Shepherd's Bush Market","name:ru":"Шепердс-Буш-Маркет","naptan:AtcoCode":"940GZZLUSBM","network":"London Underground","public_transport":"station","railway":"station","source_ref":"http://en.wikipedia.org/wiki/List_of_London_Underground_stations","station":"subway","subway":"yes","wheelchair":"no","wikidata":"Q1857909","wikipedia":"en:Shepherd's Bush Market tube station"}},
{"type":"Feature","geometry":{"type":"Point","coordinates":[-0.722846,51.5183532]},"properties":{"layer":"3","name":"Maidenhead","naptan:AtcoCode":"9100MDNHEAD","network":"National Rail;Elizabeth Line","operator":"Great Western Railway","public_transport":"station","railway":"station","ref:crs":"MAI","wheelchair":"yes","wikidata":"Q1801859","wikipedia":"en:Maidenhead railway station"}},
{"type":"Feature","geometry":{"type":"Point","coordinates":[-0.4718293,51.5097364]},"properties":{"fare_zone":"6","name":"West Drayton","naptan:AtcoCode":"9100WDRYTON","network":"National Rail;Elizabeth Line","operator":"TfL Rail","public_transport":"station","railway":"station","ref:crs":"WDT","source_ref":"http://en.wikipedia.org/wiki/List_of_London_railway tions","wheelchair":"yes","wheelchair:description":"Access from platform to train by manual boarding ramp.","wikidata":"Q2033143","wikipedia":"en:West Drayton railway station"}},
{"type":"Feature","geometry":{"type":"Point","coordinates":[-0.192318,51.6008355]},"properties":{"fare_zone":"4","line":"Northern","name":"Finchley Central","naptan:AtcoCode":"940GZZLUFYC","network":"London Underground","old_name":"Finchley (Church End)","public_transport":"station","railway":"station","station":"subway","subway":"yes","wheelchair":"yes","wikidata":"Q1416721","wikipedia":"en:Finchley Central tube station"}},
{"type":"Feature","geometry":{"type":"Point","coordinates":[-1.2944932,50.9323988]},"properties":{"name":"Hedge End","naptan:AtcoCode":"9100HEDGEND","network":"National Rail","public_transport":"station","railway":"station","ref:crs":"HDE","wikidata":"Q2686491","wikipedia":"en:Hedge End railway station"}},
{"type":"Feature","geometry":{"type":"Point","coordinates":[-1.8383384,52.5925882]},"properties":{"name":"Butlers Lane","naptan:AtcoCode":"9100BTLRSLA","network":"National Rail","public_transport":"station","railway":"station","ref:crs":"BUL","west_midlands_fare_zone":"5","wikidata":"Q5002705","wikipedia":"en:Butlers Lane railway station"}},
{"type":"Feature","geometry":{"type":"Point","coordinates":[-0.7320452,52.3934872]},"properties":{"name":"Kettering","naptan:AtcoCode":"9100KETR","network":"National Rail","public_transport":"station","railway":"station","ref:crs":"KET","train":"yes","wheelchair":"yes","wikidata":"Q2284587","wikimedia_commons":"Category:Kettering railway station","wikipedia":"en:Kettering railway station"}},
{"type":"Feature","geometry":{"type":"Point","coordinates":[-1.1566159,50.7241835]},"properties":{"image":"File:Ryde St. John's Road Railway station 1971.jpg","name":"Ryde St John's Road","naptan:AtcoCode":"9100RYDS","network":"National Rail","operator":"Island Line Trains","public_transport":"station","railway":"station","ref:crs":"RYR","wikidata":"Q4567463","wikipedia":"en:Ryde St John's Road railway station"}},
{"type":"Feature","geometry":{"type":"Point","coordinates":[-1.1386289,50.6782995]},"properties":{"image":"File:Brading station, Isle of Wight.jpg","name":"Brading","naptan:AtcoCode":"9100BRDING","network":"National Rail","public_transport":"station","railway":"station","ref:crs":"BDN","wikidata":"Q2274755","wikipedia":"en:Brading railway station"}},
{"type":"Feature","geometry":{"type":"Point","coordinates":[-1.1550109,50.7114593]},"properties":{"name":"Smallbrook Junction","naptan:AtcoCode":"9100SMALBRK","network":"National Rail","note":"No road/path access - open for interchange only","operator":"Island Line Trains","public_transport":"station","railway":"station","ref:crs":"SAB","wikidata":"Q1868757","wikipedia":"en:Smallbrook Junction railway station"}},
{"type":"Feature","geometry":{"type":"Point","coordinates":[-1.2146336,50.7054566]},"properties":{"addr:city":"Havenstreet, near Ryde","addr:street":"Main Road","name":"Havenstreet","naptan:AtcoCode":"940GZZIWHVS","public_transport":"station","railway":"station","usage":"tourism","wikidata":"Q5683726"}},
{"type":"Feature","geometry":{"type":"Point","coordinates":[-1.634563,51.0424158]},"properties":{"name":"Dean","naptan:AtcoCode":"9100DEAN","network":"National Rail","public_transport":"station","railway":"station","ref:crs":"DEN","wikidata":"Q671580","wikipedia":"en:Dean railway station"}},
{"type":"Feature","geometry":{"type":"Point","coordinates":[-2.5304821,51.7142815]},"properties":{"name":"Lydney","naptan:AtcoCode":"9100LYDNEY","network":"National Rail","operator":"Trafnidiaeth Cymru","operator:cy":"Trafnidiaeth Cymru","operator:en":"Transport for Wales","railway":"station","ref:crs":"LYD","source":"NPE","wheelchair":"yes","wikipedia":"en:Lydney railway station"}},
{"type":"Feature","geometry":{"type":"Point","coordinates":[-1.2590525,50.9163612]},"properties":{"addr:city":"Eastleigh","addr:housename":"Botley Railway Station","addr:postcode":"SO30 2DY","addr:street":"Station Hill","name":"Botley","naptan:AtcoCode":"9100BOTLEY","network":"National Rail","public_transport":"station","railway":"station","ref:crs":"BOE","wikidata":"Q2041220","wikipedia":"en:Botley railway station"}},
{"type":"Feature","geometry":{"type":"Point","coordinates":[-1.2365831,51.653894]},"properties":{"name":"Culham","naptan:AtcoCode":"9100CULHAM","network":"National Rail","public_transport":"station","railway":"station","ref:crs":"CUM","source":"NPE","wikidata":"Q2740729","wikipedia":"en:Culham railway station"}},
{"type":"Feature","geometry":{"type":"Point","coordinates":[-1.2424741,51.6394882]},"properties":{"name":"Appleford","naptan:AtcoCode":"9100APPLEFD","network":"National Rail","railway":"station","ref:crs":"APF","source":"NPE","wikidata":"Q2550440","wikipedia":"en:Appleford railway station"}},
{"type":"Feature","geometry":{"type":"Point","coordinates":[0.1057186,51.394738]},"properties":{"name":"St Mary Cray","naptan:AtcoCode":"9100STMRYC","network":"National Rail","operator":"Southeastern","public_transport":"station","railway":"station","ref:crs":"SMY","toilets:wheelchair":"no","wheelchair":"no","wikidata":"Q2349500","wikipedia":"en:St Mary Cray railway station"}},
{"type":"Feature","geometry":{"type":"Point","coordinates":[-1.3289942,50.8712423]},"properties":{"name":"Hamble","naptan:AtcoCode":"9100HMBLE","network":"National Rail","public_transport":"station","railway":"station","ref:crs":"HME","wikidata":"Q927502","wikipedia":"en:Hamble railway station"}},
{"type":"Feature","geometry":{"type":"Point","coordinates":[-2.602769,53.2662973]},"properties":{"name":"Acton Bridge","naptan:AtcoCode":"9100ACBG","network":"National Rail","public_transport":"station","railway":"station","ref:crs":"ACB","uic_ref":"7000024","wikipedia":"en:Acton Bridge railway station"}},
{"type":"Feature","geometry":{"type":"Point","coordinates":[-2.9329194,54.8905816]},"properties":{"name":"Carlisle","naptan:AtcoCode":"9100CARLILE","network":"National Rail","operator":"Avanti West Coast","public_transport":"station","railway":"station","ref:crs":"CAR","train":"yes","wikidata":"Q2792535","wikipedia":"en:Carlisle railway station"}},
{"type":"Feature","geometry":{"type":"Point","coordinates":[-1.3939977,51.8326251]},"properties":{"name":"Combe","naptan:AtcoCode":"9100COMBE","network":"National Rail","public_transport":"station","railway":"station","ref:crs":"CME","toilets:wheelchair":"no","wheelchair":"limited","wikidata":"Q2751535","wikipedia":"en:Combe railway station"}},
{"type":"Feature","geometry":{"type":"Point","coordinates":[-1.5924463,51.8658738]},"properties":{"name":"Shipton","naptan:AtcoCode":"9100SPTN","network":"National Rail","operator":"First Great Western","platforms":"2","public_transport":"station","railway":"station","ref:crs":"SIP","wikidata":"Q2202267","wikipedia":"en:Shipton railway station"}},
{"type":"Feature","geometry":{"type":"Point","coordinates":[-1.4696045,51.8528179]},"properties":{"name":"Finstock","naptan:AtcoCode":"9100FINSTCK","network":"National Rail","public_transport":"station","railway":"station","ref:crs":"FIN","wikidata":"Q2368596","wikipedia":"en:Finstock railway station"}},
{"type":"Feature","geometry":{"type":"Point","coordinates":[-1.125024,50.8488504]},"properties":{"name":"Portchester","naptan:AtcoCode":"9100PCHESTR","network":"National Rail","operator":"South West Trains","public_transport":"station","railway":"station","ref:crs":"PTC","wikidata":"Q1951021","wikipedia":"en:Portchester railway station"}},
{"type":"Feature","geometry":{"type":"Point","coordinates":[-1.1610285,51.0883048]},"properties":{"name":"Alresford","public_transport":"station","railway":"station","usage":"tourism","wikidata":"Q4735710","wikipedia":"en:Alresford_railway_station_(Hampshire)"}},
{"type":"Feature","geometry":{"type":"Point","coordinates":[-0.7784454,54.2472695]},"properties":{"addr:housename":"Pickering Station","addr:postcode":"YO18 7AJ","addr:street":"Park Street","name":"Pickering","naptan:AtcoCode":"940GZZNYPCK","railway":"station","usage":"tourism","website":"https://www.nymr.co.uk/","wikidata":"Q7190832"}},
{"type":"Feature","geometry":{"type":"Point","coordinates":[-0.7443884,54.3082776]},"properties":{"name":"Levisham","naptan:AtcoCode":"940GZZNYLEV","railway":"station","ref:tiploc":"PICKLEV","usage":"tourism","wikidata":"Q6535693","wikipedia":"en:Levisham railway station"}},
{"type":"Feature","geometry":{"type":"Point","coordinates":[-0.7177548,54.3424545]},"properties":{"name":"Newton Dale","public_transport":"station","railway":"station","usage":"tourism","wikidata":"Q7020211","wikipedia":"en:Newton Dale Halt railway station"}},
{"type":"Feature","geometry":{"type":"Point","coordinates":[-0.7120943,54.4005905]},"properties":{"name":"Goathland","naptan:AtcoCode":"940GZZNYGTH","public_transport":"station","railway":"station","usage":"tourism","wikidata":"Q5575368","wikipedia":"en:Goathland railway station"}},
{"type":"Feature","geometry":{"type":"Point","coordinates":[-0.7248417,54.4361695]},"properties":{"name":"Grosmont","naptan:AtcoCode":"910GGROSMNT","public_transport":"station","railway":"station","usage":"tourism","wheelchair":"yes"}},
{"type":"Feature","geometry":{"type":"Point","coordinates":[-2.2808342,54.0669551]},"properties":{"name":"Settle","naptan:AtcoCode":"9100SETTLE","network":"National Rail","network:wikidata":"Q26334","postal_code":"BD24 9AA","public_transport":"station","railway":"station","ref:crs":"SET","route":"Settle to Carlisle Railway","source":"GPX + NPE","train":"yes","wikidata":"Q2210148","wikipedia":"en:Settle railway station"}},
{"type":"Feature","geometry":{"type":"Point","coordinates":[-1.743655,52.5185309]},"properties":{"name":"Water Orton","naptan:AtcoCode":"9100WTRORTN","network":"National Rail","public_transport":"station","railway":"station","ref:crs":"WTO","wikidata":"Q2674112","wikipedia":"en:Water Orton railway station"}},
{"type":"Feature","geometry":{"type":"Point","coordinates":[-0.2488001,51.6126689]},"properties":{"alt_name":"Mill Hill Broadway Rail Station","name":"Mill Hill Broadway","naptan:AtcoCode":"9100MLHB","network":"National Rail","operator":"Thameslink","public_transport":"station","railway":"station","ref:crs":"MIL","source":"GPS waypoint","toilets:wheelchair":"no","wheelchair":"no","wikidata":"Q2396825","wikipedia":"en:Mill Hill Broadway railway station"}},
{"type":"Feature","geometry":{"type":"Point","coordinates":[-0.0261521,51.4444696]},"properties":{"air_conditioning":"no","baby_feeding":"no","level":"1","name":"Catford","naptan:AtcoCode":"9100CATFORD","network":"National Rail","public_transport":"station","railway":"station","ref:crs":"CTF","source":"survey","source_ref":"http://en.wikipedia.org/wiki/List_of_London_railway_stations","train":"yes","wheelchair":"yes","wikidata":"Q2401174","wikipedia":"en:Catford railway station"}},
{"type":"Feature","geometry":{"type":"Point","coordinates":[-1.0673875,50.8418849]},"properties":{"alt_name":"Cosham Railway Station","name":"Cosham","naptan:AtcoCode":"9100COSHAM","network":"National Rail","operator":"South West Trains","public_transport":"station","railway":"station","ref:crs":"CSA","source":"NPE","wikidata":"Q5172759","wikipedia":"en:Cosham railway station"}},
{"type":"Feature","geometry":{"type":"Point","coordinates":[-2.8960456,53.2821114]},"properties":{"name":"Ellesmere Port","naptan:AtcoCode":"9100ELSMPRT","network":"National Rail","public_transport":"station","railway":"station","ref:crs":"ELP","train":"yes","wikidata":"Q5365264","wikipedia":"en:Ellesmere Port railway station"}},
{"type":"Feature","geometry":{"type":"Point","coordinates":[-2.0549484,50.6382716]},"properties":{"name":"Corfe Castle","naptan:AtcoCode":"940GZZSRCFC","network":"National Rail","network:wikidata":"Q26334","public_transport":"station","railway":"station","ref:crs":"CFC","train":"yes","usage":"tourism","wikidata":"Q5170476","wikipedia":"en:Corfe Castle railway station"}},
{"type":"Feature","geometry":{"type":"Point","coordinates":[-2.0265551,50.6197911]},"properties":{"name":"Harman's Cross","naptan:AtcoCode":"940GZZSRHMC","platforms":"2","public_transport":"station","railway":"station","usage":"tourism","wikidata":"Q5659026"}},
{"type":"Feature","geometry":{"type":"Point","coordinates":[-1.9804011,50.6130644]},"properties":{"name":"Herston Halt","public_transport":"station","railway":"station","request_stop":"yes","usage":"tourism","wikidata":"Q15223746"}},
{"type":"Feature","geometry":{"type":"Point","coordinates":[-0.3085216,51.0793769]},"properties":{"name":"Littlehaven","naptan:AtcoCode":"9100LHVN","network":"National Rail","network:wikidata":"Q26334","old_name":"Littlehaven Halt","operator":"Southern","public_transport":"station","railway":"station","ref:crs":"LVN","train":"yes","wikidata":"Q2327144","wikipedia":"en:Littlehaven railway station"}},
{"type":"Feature","geometry":{"type":"Point","coordinates":[-0.2630067,51.0959458]},"properties":{"name":"Faygate","naptan:AtcoCode":"9100FAYGATE","network":"National Rail","public_transport":"station","railway":"station","ref:crs":"FGT","source":"NPE","wikidata":"Q2337132","wikipedia":"en:Faygate railway station"}},
{"type":"Feature","geometry":{"type":"Point","coordinates":[-0.2144647,51.1155376]},"properties":{"name":"Ifield","naptan:AtcoCode":"9100IFIELD","network":"National Rail","operator":"Southern","railway":"station","ref:crs":"IFI","wheelchair":"no","wikidata":"Q4933252","wikipedia":"en:Ifield railway station"}},
{"type":"Feature","geometry":{"type":"Point","coordinates":[-0.1609224,51.1567346]},"properties":{"addr:postcode":"RH6 0RD","name":"Gatwick Airport","naptan:AtcoCode":"9100GTWK","network":"National Rail","old_name":"Gatwick Racecourse","public_transport":"station","railway":"station","ref:crs":"GTW","wheelchair":"yes","wikidata":"Q1495884","wikipedia":"en:Gatwick Airport railway station"}},
{"type":"Feature","geometry":{"type":"Point","coordinates":[-0.1457168,50.9247179]},"properties":{"addr:postcode":"BN6 8JD","name":"Hassocks","naptan:AtcoCode":"9100HASOCKS","network":"National Rail","operator":"Southern","public_transport":"station","railway":"station","ref:crs":"HSK","wikidata":"Q2831648","wikipedia":"en:Hassocks railway station"}},
{"type":"Feature","geometry":{"type":"Point","coordinates":[-1.2376466,51.826163]},"properties":{"name":"Islip","naptan:AtcoCode":"9100ISLIP","network":"National Rail","public_transport":"station","railway":"station","ref:crs":"ISP","wikidata":"Q1847555","wikipedia":"en:Islip railway station"}},
{"type":"Feature","geometry":{"type":"Point","coordinates":[-1.1493759,51.8924126]},"properties":{"name":"Bicester Village","naptan:AtcoCode":"9100BCSTRTN","network":"National Rail","note:name":"used to be Bicester Town, don't ask","operator":"Chiltern Rail","postal_code":"OX26 6HU","public_transport":"station","railway":"station","ref:crs":"BIT","train":"yes","wikidata":"Q1873632","wikipedia":"en:Bicester Village railway station"}},
{"type":"Feature","geometry":{"type":"Point","coordinates":[-0.1558767,51.4922264]},"properties":{"fare_zone":"1","line":"District;Circle","name":"Sloane Square","name:ru":"Слоун-сквер","naptan:AtcoCode":"940GZZLUSSQ","network":"London Underground","platforms":"2","public_transport":"station","railway":"station","station":"subway","subway":"yes","train":"yes","wheelchair":"no","wikidata":"Q1530578","wikipedia":"en:Sloane Square tube station"}},
{"type":"Feature","geometry":{"type":"Point","coordinates":[-0.8429813,51.4119036]},"properties":{"name":"Wokingham","naptan:AtcoCode":"9100WOKNGHM","network":"National Rail","operator":"South West Trains","public_transport":"station","railway":"station","ref:crs":"WKM","wheelchair":"yes","wikidata":"Q2588372","wikipedia":"en:Wokingham railway station"}},
{"type":"Feature","geometry":{"type":"Point","coordinates":[-0.776776,51.3315657]},"properties":{"name":"Blackwater","naptan:AtcoCode":"9100BCKWATR","network":"National Rail","operator":"First Great Western","public_transport":"station","railway":"station","ref:crs":"BAW","train":"yes","wheelchair":"yes","wikidata":"Q2760814","wikipedia":"en:Blackwater railway station"}},
{"type":"Feature","geometry":{"type":"Point","coordinates":[-1.5639687,51.8674576]},"properties":{"name":"Ascott-under-Wychwood","naptan:AtcoCode":"9100ASCTUWD","network":"National Rail","platforms":"2","public_transport":"station","railway":"station","ref:crs":"AUW","wikidata":"Q4804064","wikipedia":"en:Ascott-under-Wychwood railway station"}},
{"type":"Feature","geometry":{"type":"Point","coordinates":[-2.0678139,51.9243306]},"properties":{"name":"Cheltenham Racecourse","naptan:AtcoCode":"940GZZGRCRC","operator":"Gloucestershire and Warwickshire Steam Railway","public_transport":"station","railway":"station","source":"npe","usage":"tourism","wikidata":"Q5090223","wikipedia":"en:Cheltenham Racecourse railway station"}},
{"type":"Feature","geometry":{"type":"Point","coordinates":[-1.3416249,50.8749]},"properties":{"name":"Netley","naptan:AtcoCode":"9100NETLEY","network":"National Rail","public_transport":"station","railway":"station","ref:crs":"NTL","wikidata":"Q2555327","wikipedia":"en:Netley railway station"}},
{"type":"Feature","geometry":{"type":"Point","coordinates":[-2.7711482,53.2752889]},"properties":{"name":"Helsby","naptan:AtcoCode":"9100HELSBY","network":"National Rail","public_transport":"station","railway":"station","ref:crs":"HSB","wikipedia":"en:Helsby railway station"}},
{"type":"Feature","geometry":{"type":"Point","coordinates":[-2.5623447,51.5258271]},"properties":{"name":"Patchway","naptan:AtcoCode":"9100PATCHWY","network":"National Rail","postal_code":"BS34 6LP","railway":"station","ref:crs":"PWY","wikidata":"Q2385086","wikipedia":"en:Patchway railway station"}},
{"type":"Feature","geometry":{"type":"Point","coordinates":[-1.7136258,50.752603]},"properties":{"name":"Hinton Admiral","naptan:AtcoCode":"9100HINTONA","network":"National Rail","network:wikidata":"Q26334","public_transport":"station","railway":"station","ref:crs":"HNA","source":"NPE","train":"yes","wikidata":"Q1968589","wikipedia":"en:Hinton Admiral railway station"}},
{"type":"Feature","geometry":{"type":"Point","coordinates":[-2.4321734,51.5413993]},"properties":{"name":"Yate","naptan:AtcoCode":"9100YATE","network":"National Rail","postal_code":"BS37 5JF","public_transport":"station","railway":"station","ref:crs":"YAE","wikidata":"Q3900748","wikipedia":"en:Yate railway station"}},
{"type":"Feature","geometry":{"type":"Point","coordinates":[-1.0732559,50.7964461]},"properties":{"name":"Fratton","naptan:AtcoCode":"9100FRATTON","network":"National Rail","operator":"South Westen Railway","public_transport":"station","railway":"station","ref:crs":"FTN","wheelchair":"yes","wikidata":"Q2618118","wikipedia":"en:Fratton railway station"}},
{"type":"Feature","geometry":{"type":"Point","coordinates":[-1.1499566,51.9034655]},"properties":{"name":"Bicester North","naptan:AtcoCode":"9100BCSTN","network":"National Rail","postal_code":"OX26 6EF","public_transport":"station","railway":"station","ref:crs":"BCS","wheelchair":"yes","wikidata":"Q2184930","wikipedia":"en:Bicester North railway station"}},
{"type":"Feature","geometry":{"type":"Point","coordinates":[-0.4422487,51.2192418]},"properties":{"name":"Gomshall","naptan:AtcoCode":"9100GOMSHAL","network":"National Rail","public_transport":"station","railway":"station","ref:crs":"GOM","wheelchair":"yes","wikidata":"Q3199982","wikipedia":"en:Gomshall railway station"}},
{"type":"Feature","geometry":{"type":"Point","coordinates":[-2.2143313,51.3200055]},"properties":{"name":"Trowbridge","naptan:AtcoCode":"9100TRWBRDG","network":"National Rail","public_transport":"station","railway":"station","ref:crs":"TRO","source":"NPE","wikidata":"Q2974092","wikipedia":"en:Trowbridge railway station"}},
{"type":"Feature","geometry":{"type":"Point","coordinates":[0.1526024,51.1284231]},"properties":{"addr:postcode":"TN3 9TL","name":"Ashurst","naptan:AtcoCode":"9100ASHURST","network":"National Rail","public_transport":"station","railway":"station","ref:crs":"AHS","source":"gps","wikidata":"Q2393085","wikipedia":"en:Ashurst railway station"}},
{"type":"Feature","geometry":{"type":"Point","coordinates":[0.0639692,51.5084776]},"properties":{"light_rail":"yes","name":"Cyprus","naptan:AtcoCode":"940GZZDLCYP","network":"Docklands Light Railway","public_transport":"station","public_transport:version":"2","railway":"station","source_ref":"http://en.wikipedia.org/wiki/List_of_Docklands_Light_Railway_stations","station":"light_rail","wheelchair":"yes","wikidata":"Q599724","wikipedia":"en:Cyprus DLR station"}},
{"type":"Feature","geometry":{"type":"Point","coordinates":[-0.2052902,51.4220721]},"properties":{"fare_zone":"3","line":"District","name":"Wimbledon","name:ru":"Уимблдон","naptan:AtcoCode":"9100WIMBLDN","network":"National Rail;London Underground;London Trams","operator":"South Western Railway","public_transport":"station","railway":"station","ref:crs":"WIM","source_ref":"https//en.wikipedia.org/wiki/List_of_London_Underground_stations","station":"subway","subway":"yes","train":"yes","tram":"yes","wheelchair":"yes","wheelchair:description":"Step-free access street to platform","wikipedia":"en:Wimbledon station"}},
{"type":"Feature","geometry":{"type":"Point","coordinates":[-0.4800873,52.647832]},"properties":{"name":"Stamford","naptan:AtcoCode":"9100STAMFD","network":"National Rail","network:wikidata":"Q26334","operator":"CrossCountry Trains","postal_code":"PE9 2JL","public_transport":"station","railway":"station","ref:crs":"SMD","train":"yes","wikidata":"Q2661650","wikipedia":"en:Stamford railway station"}},
{"type":"Feature","geometry":{"type":"Point","coordinates":[-0.0952228,51.5118924]},"properties":{"fare_zone":"1","line":"District;Circle","name":"Mansion House","name:ru":"Мэншн Хаус","naptan:AtcoCode":"940GZZLUMSH","network":"London Underground","operator":"Transport for London","platforms":"3","public_transport":"station","railway":"station","source:name":"local knowledge","start_date":"1871-07-03","station":"subway","subway":"yes","wheelchair":"no","wikidata":"Q1477336","wikimedia_commons":"Category:Mansion House tube station","wikipedia":"en:Mansion House tube station"}},
{"type":"Feature","geometry":{"type":"Point","coordinates":[-1.2028067,52.5713504]},"properties":{"name":"Narborough","naptan:AtcoCode":"9100NARBRO","network":"National Rail","postal_code":"LE9 5HR","public_transport":"station","railway":"station","ref:crs":"NBR","source":"survey","wikidata":"Q1823442","wikipedia":"en:Narborough railway station"}},
{"type":"Feature","geometry":{"type":"Point","coordinates":[-1.9524816,53.8149218]},"properties":{"name":"Oxenhope","naptan:AtcoCode":"940GZZKWOXH","public_transport":"station","railway":"station","usage":"tourism","wikidata":"Q7115190","wikipedia":"en:Oxenhope railway station"}},
{"type":"Feature","geometry":{"type":"Point","coordinates":[-0.3592754,51.5575208]},"properties":{"name":"Northolt Park","naptan:AtcoCode":"9100NTHOLTP","network":"National Rail","operator":"Chiltern Railways","public_transport":"station","railway":"station","ref:crs":"NLT","wheelchair":"limited","wheelchair:description":"Flat access to both platforms. Please note that there is no flat access between platforms (access between platforms is via the footbridge). Flat access from one platform to another is via public footpaths and is a distance of roughly 500m.","wikidata":"Q2799274","wikipedia":"en:Northolt Park railway station"}},
{"type":"Feature","geometry":{"type":"Point","coordinates":[-0.3631762,51.5851618]},"properties":{"fare_zone":"5","line":"Metropolitan","name":"North Harrow","naptan:AtcoCode":"940GZZLUNHA","network":"London Underground","operator":"London Underground","public_transport":"station","railway":"station","station":"subway","subway":"yes","wheelchair":"no","wikidata":"Q645943","wikipedia":"en:North Harrow tube station"}},
{"type":"Feature","geometry":{"type":"Point","coordinates":[0.1734867,51.1972229]},"properties":{"addr:postcode":"TN11 8JE","name":"Penshurst","naptan:AtcoCode":"9100PNSHRST","network":"National Rail","public_transport":"station","railway":"station","ref:crs":"PHR","wikidata":"Q2675582","wikipedia":"en:Penshurst railway station"}},
{"type":"Feature","geometry":{"type":"Point","coordinates":[-1.8267335,50.7311874]},"properties":{"addr:city":"Bournemouth","name":"Pokesdown","naptan:AtcoCode":"9100POKSDWN","network":"National Rail","public_transport":"station","railway":"station","ref:crs":"POK","source":"NPE","wheelchair":"no","wikidata":"Q12066077","wikipedia":"en:Pokesdown railway station"}},
{"type":"Feature","geometry":{"type":"Point","coordinates":[-1.9478482,50.7229607]},"properties":{"addr:postcode":"BH14 8UD","name":"Parkstone","naptan:AtcoCode":"9100PSTONE","network":"National Rail","public_transport":"station","railway":"station","ref:crs":"PKS","source":"NPE","wikidata":"Q7138723","wikipedia":"en:Parkstone railway station"}},
{"type":"Feature","geometry":{"type":"Point","coordinates":[-1.9196847,50.7269847]},"properties":{"addr:postcode":"BH12 1DF","name":"Branksome","naptan:AtcoCode":"9100BRANKSM","network":"National Rail","railway":"station","ref:crs":"BSM","source":"NPE","wikidata":"Q4957509","wikipedia":"en:Branksome railway station"}},
{"type":"Feature","geometry":{"type":"Point","coordinates":[-1.9836745,50.7189814]},"properties":{"addr:postcode":"BH15 2BQ","name":"Poole","naptan:AtcoCode":"9100POOLE","network":"National Rail","public_transport":"station","railway":"station","ref:crs":"POO","source":"NPE","surveillance":"outdoor","train":"yes","wheelchair":"yes","wikidata":"Q7228632","wikipedia":"en:Poole railway station"}},
{"type":"Feature","geometry":{"type":"Point","coordinates":[-2.077724,50.7114998]},"properties":{"name":"Holton Heath","naptan:AtcoCode":"9100HOLTONH","network":"National Rail","network:wikidata":"Q26334","public_transport":"station","railway":"station","ref:crs":"HOL","source":"NPE","surveillance":"public","train":"yes","wheelchair":"yes","wikidata":"Q2271679","wikipedia":"en:Holton Heath railway station"}},
{"type":"Feature","geometry":{"type":"Point","coordinates":[-2.2404522,53.3485037]},"properties":{"name":"Styal","naptan:AtcoCode":"9100STYAL","network":"National Rail","public_transport":"station","railway":"station","ref:crs":"SYA","wikipedia":"en:Styal railway station"}},
{"type":"Feature","geometry":{"type":"Point","coordinates":[-0.710798,51.5769144]},"properties":{"name":"Bourne End","naptan:AtcoCode":"9100BORNEND","network":"National Rail","old_name":"Marlow Road","operator":"Great Western Railway","public_transport":"station","railway":"station","ref:crs":"BNE","source":"NPE","wikidata":"Q2018754","wikipedia":"en:Bourne End railway station"}},
{"type":"Feature","geometry":{"type":"Point","coordinates":[-0.3348748,51.5922178]},"properties":{"fare_zone":"5","line":"Bakerloo","name":"Harrow & Wealdstone","naptan:AtcoCode":"9100HROW","network":"London Underground;London Overground","network:subway":"London Underground","network:train":"London Overground;National Rail","operator":"London Underground","public_transport":"station","railway":"station","ref:crs":"HRW","source:network":"Sign","source_ref":"http://en.wikipedia.org/wiki/List_of_London_railway_stations;http://en.wikipedia.org/wiki/List_of_London_Underground_stations;http://en.wikipedia.org/wiki/London_Overground#Stations","station":"subway","subway":"yes","train":"yes","wheelchair":"yes","wikidata":"Q800896","wikipedia":"en:Harrow & Wealdstone station"}},
{"type":"Feature","geometry":{"type":"Point","coordinates":[-0.4378216,51.7064134]},"properties":{"name":"Kings Langley","naptan:AtcoCode":"9100KLGL","network":"National Rail","operator":"London Northwestern Railway","public_transport":"station","railway":"station","ref:crs":"KGL","source":"GPX + NPE","wheelchair":"no","wikidata":"Q2206088","wikipedia":"en:Kings Langley railway station"}},
{"type":"Feature","geometry":{"type":"Point","coordinates":[0.3345214,53.1431867]},"properties":{"name":"Skegness","naptan:AtcoCode":"9100SKEGNES","network":"National Rail","operator":"East Midlands Railway","public_transport":"station","railway":"station","ref:crs":"SKG","source":"NPE tracing","train":"yes","wheelchair":"yes","wikipedia":"en:Skegness railway station"}},
{"type":"Feature","geometry":{"type":"Point","coordinates":[0.2729912,53.1146157]},"properties":{"name":"Havenhouse","naptan:AtcoCode":"9100HAVENHS","network":"National Rail","public_transport":"station","railway":"station","ref:crs":"HVN","source":"NPE tracing","wikidata":"Q2676343","wikipedia":"en:Havenhouse railway station"}},
{"type":"Feature","geometry":{"type":"Point","coordinates":[0.2345366,53.105126]},"properties":{"name":"Wainfleet","naptan:AtcoCode":"9100WAINFLT","network":"National Rail","public_transport":"station","railway":"station","ref:crs":"WFL","source":"NPE tracing","wikipedia":"en:Wainfleet railway station"}},
{"type":"Feature","geometry":{"type":"Point","coordinates":[-0.0313195,52.978108]},"properties":{"name":"Boston","name:lt":"Bostonas","naptan:AtcoCode":"9100BOSTON","network":"National Rail","public_transport":"station","railway":"station","ref:crs":"BSN","source":"NPE tracing","wheelchair":"yes","wikidata":"Q1812453","wikipedia":"en:Boston railway station"}},
{"type":"Feature","geometry":{"type":"Point","coordinates":[-0.2038369,51.2418815]},"properties":{"addr:city":"Reigate","addr:postcode":"RH2 0BD","name":"Reigate","naptan:AtcoCode":"9100REIGATE","network":"National Rail","postal_code":"RH2 0BD","public_transport":"station","railway":"station","ref:crs":"REI","toilets:wheelchair":"yes","website":"http://www.nationalrail.co.uk/stations-and-destinations/stations-made-easy/reigate-station-plan","wheelchair":"yes","wheelchair:description":"Platform 1 for Gatwick: Step free via side gate to ticket office & WC, Platform 2 for Reading & London step free, Blue Badge Bays nearby. Hearing Loop in Booking Office. Uneven \"Step-free\" to town is across rail tracks. Subway has steps.","wikidata":"Q628747","wikipedia":"en:Reigate railway station"}},
{"type":"Feature","geometry":{"type":"Point","coordinates":[-0.2887523,51.5174885]},"properties":{"fare_zone":"3","line":"Piccadilly","name":"North Ealing","naptan:AtcoCode":"940GZZLUNEN","network":"London Underground","public_transport":"station","railway":"station","source":"NPE","station":"subway","subway":"yes","wheelchair":"no","wikidata":"Q1272075","wikipedia":"en:North Ealing tube station"}},
{"type":"Feature","geometry":{"type":"Point","coordinates":[-0.342528,51.7446585]},"properties":{"name":"St Albans Abbey","naptan:AtcoCode":"9100STALBNA","network":"National Rail","operator":"London Northwestern Railway","public_transport":"station","railway":"station","ref:crs":"SAA","ref:stanox":"71030","ref:tiploc":"STALBNA","wheelchair":"yes","wikidata":"Q2693952","wikipedia":"en:St Albans Abbey railway station"}},
{"type":"Feature","geometry":{"type":"Point","coordinates":[-0.3400687,51.7256643]},"properties":{"name":"Park Street","naptan:AtcoCode":"9100PKST","network":"National Rail","operator":"London Northwestern Railway","public_transport":"station","railway":"station","ref:crs":"PKT","ref:stanox":"71032","ref:tiploc":"PKST","wikidata":"Q2162503","wikipedia":"en:Park Street railway station (England)"}},
{"type":"Feature","geometry":{"type":"Point","coordinates":[-0.3591176,51.7055662]},"properties":{"internet_access":"no","name":"Bricket Wood","naptan:AtcoCode":"9100BCWD","network":"National Rail","operator":"London Northwestern Railway","public_transport":"station","railway":"station","ref:crs":"BWO","ref:stanox":"71036","ref:tiploc":"BCWD","train":"yes","wheelchair":"yes","wikidata":"Q2407794","wikipedia":"en:Bricket Wood railway station"}},
{"type":"Feature","geometry":{"type":"Point","coordinates":[-0.3818122,51.6865229]},"properties":{"name":"Garston","naptan:AtcoCode":"9100GRSTH","network":"National Rail","operator":"London Northwestern Railway","public_transport":"station","railway":"station","ref:crs":"GSN","ref:stanox":"71038","ref:tiploc":"GRSTH","wheelchair":"limited","wikidata":"Q19895","wikipedia":"en:Garston railway station (Hertfordshire)"}},
{"type":"Feature","geometry":{"type":"Point","coordinates":[-0.3902879,51.6750417]},"properties":{"name":"Watford North","naptan:AtcoCode":"9100WATFDN","network":"National Rail","operator":"London Northwestern Railway","public_transport":"station","railway":"station","ref:crs":"WFN","ref:stanox":"71039","ref:tiploc":"WATFDN","wheelchair":"yes","wikidata":"Q19902","wikipedia":"en:Watford North railway station"}},
{"type":"Feature","geometry":{"type":"Point","coordinates":[-0.3446753,51.7176358]},"properties":{"name":"How Wood","naptan:AtcoCode":"9100HOWWOOD","network":"National Rail","operator":"London Northwestern Railway","public_transport":"station","railway":"station","ref:crs":"HWW","ref:stanox":"71034","ref:tiploc":"HOWWOOD","wikidata":"Q2664311","wikipedia":"en:How Wood railway station"}},
{"type":"Feature","geometry":{"type":"Point","coordinates":[-1.6367716,55.392793]},"properties":{"name":"Alnmouth","naptan:AtcoCode":"9100ALNMOTH","network":"National Rail","railway":"station","ref:crs":"ALM","source":"NPE","wikidata":"Q4734063","wikipedia":"en:Alnmouth railway station"}},
{"type":"Feature","geometry":{"type":"Point","coordinates":[-2.0105423,55.7745555]},"properties":{"name":"Berwick-upon-Tweed","naptan:AtcoCode":"910GBRWCKUT","network":"National Rail","operator":"London North Eastern Railway","railway":"station","ref:crs":"BWK","wikidata":"Q2232337","wikipedia":"en:Berwick-upon-Tweed railway station"}},
{"type":"Feature","geometry":{"type":"Point","coordinates":[-1.7066521,55.5367261]},"properties":{"name":"Chathill","naptan:AtcoCode":"9100CHHL","network":"National Rail","operator":"Northern","public_transport":"station","railway":"station","ref:crs":"CHT","source":"NPE","wikidata":"Q5087731","wikipedia":"en:Chathill railway station"}},
{"type":"Feature","geometry":{"type":"Point","coordinates":[-1.1959184,52.7690651]},"properties":{"addr:city":"Loughborough","addr:housename":"Loughborough Central Station","addr:postcode":"LE11 1RW","name":"Loughborough Central","naptan:AtcoCode":"940GZZGCLBC","public_transport":"station","railway":"station","tourism":"attraction","train":"yes","usage":"tourism","wheelchair":"limited","wikidata":"Q6686151","wikipedia":"en:Loughborough Central railway station"}},
{"type":"Feature","geometry":{"type":"Point","coordinates":[-0.1407393,50.8288602]},"properties":{"addr:city":"Brighton","addr:postcode":"BN1 3XP","name":"Brighton","naptan:AtcoCode":"9100BRGHTN","network":"National Rail","network:wikidata":"Q26334","operator":"Southern","public_transport":"station","railway":"station","ref:crs":"BTN","train":"yes","wheelchair":"yes","wheelchair:description":"Level access from buses and taxis. Tactile plan near entrance. Step-free between ends of all platforms. Train access requires ramps, no Harrington Humps discovered.","wikidata":"Q800573","wikipedia":"en:Brighton railway station"}},
{"type":"Feature","geometry":{"type":"Point","coordinates":[0.3658792,52.2015139]},"properties":{"name":"Dullingham","naptan:AtcoCode":"9100DULNGHM","network":"National Rail","railway":"station","ref:crs":"DUL","wikidata":"Q3353344","wikipedia":"en:Dullingham railway station"}},
{"type":"Feature","geometry":{"type":"Point","coordinates":[-1.664932,54.9588888]},"properties":{"addr:city":"Gateshead","addr:postcode":"NE11 9GA","alt_name":"Metro Centre","name":"MetroCentre","naptan:AtcoCode":"9100GTSHDMC","network":"National Rail","operator":"Northern","public_transport":"station","railway":"station","ref:crs":"MCE","source":"Bing;local knowledge;gps","train":"yes","wheelchair":"yes","wikidata":"Q2781169","wikipedia":"en:MetroCentre railway station"}},
{"type":"Feature","geometry":{"type":"Point","coordinates":[-2.7720801,54.809435]},"properties":{"name":"Armathwaite","naptan:AtcoCode":"9100ARMTHWT","network":"National Rail","public_transport":"station","railway":"station","ref:crs":"AWT","source":"OS_OpenData_StreetView","wikidata":"Q2444747","wikipedia":"en:Armathwaite railway station"}},
{"type":"Feature","geometry":{"type":"Point","coordinates":[-2.7036908,54.7508153]},"properties":{"name":"Lazonby and Kirkoswald","naptan:AtcoCode":"9100LAZKRKO","network":"National Rail","public_transport":"station","railway":"station","ref:crs":"LZB","source":"NPE","wikidata":"Q1973653","wikipedia":"en:Lazonby & Kirkoswald railway station"}},
{"type":"Feature","geometry":{"type":"Point","coordinates":[-2.6635574,54.6943632]},"properties":{"name":"Langwathby","naptan:AtcoCode":"9100LWBY","network":"National Rail","public_transport":"station","railway":"station","ref:crs":"LGW","source":"NPE","wheelchair":"yes","wikidata":"Q2035773","wikipedia":"en:Langwathby railway station"}},
{"type":"Feature","geometry":{"type":"Point","coordinates":[-2.3263682,54.3214617]},"properties":{"name":"Garsdale","naptan:AtcoCode":"9100GARSDLE","network":"National Rail","public_transport":"station","railway":"station","ref:crs":"GSD","source":"NPE","wikidata":"Q2145153","wikipedia":"en:Garsdale railway station"}},
{"type":"Feature","geometry":{"type":"Point","coordinates":[-2.3636343,54.2825661]},"properties":{"name":"Dent","naptan:AtcoCode":"9100DENT","network":"National Rail","public_transport":"station","railway":"station","ref:crs":"DNT","source":"NPE","train":"yes","wikidata":"Q2319302","wikipedia":"en:Dent railway station"}},
{"type":"Feature","geometry":{"type":"Point","coordinates":[-2.3603709,54.2054988]},"properties":{"name":"Ribblehead","naptan:AtcoCode":"9100RIBLHED","network":"National Rail","operator":"Northern","public_transport":"station","railway":"station","ref":"RHD","ref:crs":"RHD","source":"NPE","wikidata":"Q2801135","wikipedia":"en:Ribblehead railway station"}},
{"type":"Feature","geometry":{"type":"Point","coordinates":[-2.3020982,54.149217]},"properties":{"internet_access":"wlan","name":"Horton-in-Ribblesdale","naptan:AtcoCode":"9100HTNRIBL","network":"National Rail","public_transport":"station","railway":"station","ref:crs":"HIR","source":"NPE","wikidata":"Q5906817","wikipedia":"en:Horton-in-Ribblesdale railway station"}},
{"type":"Feature","geometry":{"type":"Point","coordinates":[-0.1553443,50.8460091]},"properties":{"addr:postcode":"BN1 6SG","name":"Preston Park","naptan:AtcoCode":"9100PRSP","network":"National Rail","operator":"Southern","public_transport":"station","railway":"station","ref:crs":"PRP","wikidata":"Q2337400","wikipedia":"en:Preston Park railway station"}},
{"type":"Feature","geometry":{"type":"Point","coordinates":[-0.1875624,51.9929714]},"properties":{"name":"Baldock","naptan:AtcoCode":"9100BALDOCK","network":"National Rail","public_transport":"station","railway":"station","ref:crs":"BDK","wheelchair":"no","wikidata":"Q19953","wikipedia":"en:Baldock railway station"}},
{"type":"Feature","geometry":{"type":"Point","coordinates":[-1.6729068,52.2952126]},"properties":{"addr:city":"Hatton","addr:postcode":"CV35 7LE","addr:street":"Station Road","name":"Hatton","naptan:AtcoCode":"9100HATTON","network":"National Rail","old_name":"Hatton Junction","public_transport":"station","railway":"station","ref:crs":"HTN","wikidata":"Q13528205","wikipedia":"en:Hatton railway station (England)"}},
{"type":"Feature","geometry":{"type":"Point","coordinates":[-1.7257883,52.3417839]},"properties":{"name":"Lapworth","naptan:AtcoCode":"9100LAPWRTH","network":"National Rail","public_transport":"station","railway":"station","ref:crs":"LPW","wikidata":"Q1904720","wikipedia":"en:Lapworth railway station"}},
{"type":"Feature","geometry":{"type":"Point","coordinates":[-1.7527829,52.3718817]},"properties":{"name":"Dorridge","naptan:AtcoCode":"9100DORIDGE","network":"National Rail","public_transport":"station","railway":"station","ref:crs":"DDG","source":"NPE","west_midlands_fare_zone":"5","wikidata":"Q2512506","wikipedia":"en:Dorridge railway station"}},
{"type":"Feature","geometry":{"type":"Point","coordinates":[-1.7743426,52.3962802]},"properties":{"name":"Widney Manor","naptan:AtcoCode":"9100WDNYMNR","network":"National Rail","public_transport":"station","railway":"station","ref:crs":"WMR","west_midlands_fare_zone":"4","wikidata":"Q2079928","wikipedia":"en:Widney Manor railway station"}},
{"type":"Feature","geometry":{"type":"Point","coordinates":[-1.7888672,52.4146286]},"properties":{"name":"Solihull","naptan:AtcoCode":"9100SOLIHUL","network":"National Rail","public_transport":"station","railway":"station","ref:crs":"SOL","west_midlands_fare_zone":"4","wikidata":"Q7558107","wikipedia":"en:Solihull railway station"}},
{"type":"Feature","geometry":{"type":"Point","coordinates":[-1.877661,52.4722127]},"properties":{"name":"Bordesley","naptan:AtcoCode":"9100BRDS","network":"National Rail","note":"only open on BCFC match days","public_transport":"station","railway":"station","ref:crs":"BBS","source":"NPE;survey","west_midlands_fare_zone":"2","wikidata":"Q3333114","wikipedia":"en:Bordesley railway station"}},
{"type":"Feature","geometry":{"type":"Point","coordinates":[-1.8992405,52.4834796]},"properties":{"name":"Birmingham Snow Hill","naptan:AtcoCode":"9100BHAMSNH","network":"National Rail","operator":"London Midland","public_transport":"station","railway":"station","ref:crs":"BSW","source":"knowledge","west_midlands_fare_zone":"1","wheelchair":"yes","wikidata":"Q3280363","wikipedia":"en:Birmingham Snow Hill railway station"}},
{"type":"Feature","geometry":{"type":"Point","coordinates":[-1.2502743,52.3790353]},"properties":{"addr:postcode":"CV21 3LA","addr:street":"Railway Terrace","name":"Rugby","naptan:AtcoCode":"9100RUGBY","network":"National Rail","operator":"Avanti West Coast","public_transport":"station","railway":"station","ref:crs":"RUG","source":"NPE","toilets:wheelchair":"yes","wheelchair":"yes","wikidata":"Q3250380","wikipedia":"en:Rugby railway station"}},
{"type":"Feature","geometry":{"type":"Point","coordinates":[-0.3924982,51.6522296]},"properties":{"check_date:wheelchair":"2022-11-10","name":"Watford High Street","naptan:AtcoCode":"9100WATFDHS","network":"London Overground","operator":"London Overground","public_transport":"station","railway":"station","ref:crs":"WFH","ref:stanox":"72002","ref:tiploc":"WATFDHS","source":"NPE","source:network":"Sign","source_ref":"http://en.wikipedia.org/wiki/London_Overground#Stations","wheelchair":"no","wikidata":"Q19898","wikipedia":"en:Watford High Street railway station"}},
{"type":"Feature","geometry":{"type":"Point","coordinates":[-0.7179834,51.9999805]},"properties":{"name":"Fenny Stratford","naptan:AtcoCode":"9100FSTR","network":"National Rail","operator":"London Northwestern Railway","postal_code":"MK2 2XP","public_transport":"station","railway":"station","ref:crs":"FEN","source":"NPE","wikidata":"Q2277649","wikipedia":"en:Fenny Stratford railway station"}},
{"type":"Feature","geometry":{"type":"Point","coordinates":[-2.8190719,54.3756184]},"properties":{"addr:city":"Staveley","addr:postcode":"LA8 9NG","addr:street":"Station Road","alt_name":"Staveley (Cumbria)","name":"Staveley","naptan:AtcoCode":"9100STAVELY","network":"National Rail","operator":"Northern","public_transport":"station","railway":"station","ref:crs":"SVL","wheelchair":"no","wikidata":"Q2032914","wikipedia":"en:Staveley railway station"}},
{"type":"Feature","geometry":{"type":"Point","coordinates":[-0.8292113,51.7359634]},"properties":{"name":"Monks Risborough","naptan:AtcoCode":"9100MNKRISB","network":"National Rail","note":"This is a halt IIRC- Little more than a platform with a ticket machine","operator":"Chiltern Railways","platforms":"1","public_transport":"station","railway":"station","ref:crs":"MRS","source":"NPE","wikidata":"Q925646","wikipedia":"en:Monks Risborough railway station"}},
{"type":"Feature","geometry":{"type":"Point","coordinates":[-0.9421714,51.771088]},"properties":{"name":"Haddenham and Thame Parkway","naptan:AtcoCode":"9100HADMATP","network":"National Rail","public_transport":"station","railway":"station","ref:crs":"HDM","wikidata":"Q2848978","wikipedia":"en:Haddenham & Thame Parkway railway station"}},
{"type":"Feature","geometry":{"type":"Point","coordinates":[-0.8254447,51.6759885]},"properties":{"name":"Saunderton","naptan:AtcoCode":"9100SUNDRTN","network":"National Rail","public_transport":"station","railway":"station","ref:crs":"SDR","train":"yes","wikidata":"Q2740928","wikipedia":"en:Saunderton railway station"}},
{"type":"Feature","geometry":{"type":"Point","coordinates":[-0.5549256,51.5887853]},"properties":{"name":"Gerrards Cross","naptan:AtcoCode":"9100GERRDSX","network":"National Rail","operator":"Chiltern Railways","public_transport":"station","railway":"station","ref:crs":"GER","source":"Bing","wikidata":"Q2412080","wikipedia":"en:Gerrards Cross railway station"}},
{"type":"Feature","geometry":{"type":"Point","coordinates":[-0.5181943,51.5806166]},"properties":{"name":"Denham Golf Club","naptan:AtcoCode":"9100DENHMGC","network":"National Rail","operator":"Chiltern Railways","public_transport":"station","railway":"station","ref:crs":"DGC","wheelchair":"no","wikidata":"Q2521362","wikipedia":"en:Denham Golf Club railway station"}},
{"type":"Feature","geometry":{"type":"Point","coordinates":[-0.4975242,51.5787242]},"properties":{"name":"Denham","naptan:AtcoCode":"9100DENHAM","network":"National Rail","operator":"Chiltern Railways","public_transport":"station","railway":"station","ref:crs":"DNM","source":"NPE","wikidata":"Q2780894","wikipedia":"en:Denham railway station"}},
{"type":"Feature","geometry":{"type":"Point","coordinates":[-0.4104614,51.5606573]},"properties":{"fare_zone":"5","line":"Central","name":"Ruislip Gardens","naptan:AtcoCode":"940GZZLURSG","network":"London Underground","operator":"London Underground","public_transport":"station","railway":"station","source":"NPE","source_ref":"http://en.wikipedia.org/wiki/List_of_London_Underground_stations","station":"subway","subway":"yes","wheelchair":"no","wikidata":"Q1718915","wikipedia":"en:Ruislip Gardens tube station"}},
{"type":"Feature","geometry":{"type":"Point","coordinates":[-2.0658086,52.5305353]},"properties":{"name":"Tipton","naptan:AtcoCode":"9100TIPTON","network":"National Rail","public_transport":"station","railway":"station","ref:crs":"TIP","source":"NPE","west_midlands_fare_zone":"5","wikidata":"Q2660685","wikipedia":"en:Tipton railway station"}},
{"type":"Feature","geometry":{"type":"Point","coordinates":[-0.7476905,51.7618168]},"properties":{"name":"Wendover","naptan:AtcoCode":"9100WENDOVR","network":"National Rail","public_transport":"station","railway":"station","ref:crs":"WND","source":"NPE","wikidata":"Q2751439","wikipedia":"en:Wendover railway station"}},
{"type":"Feature","geometry":{"type":"Point","coordinates":[-0.7092458,51.7033896]},"properties":{"name":"Great Missenden","naptan:AtcoCode":"9100GTMSNDN","network":"National Rail","public_transport":"station","railway":"station","ref:crs":"GMN","source":"NPE","toilets:wheelchair":"yes","wheelchair":"yes","wikidata":"Q1843842","wikipedia":"en:Great Missenden railway station"}},
{"type":"Feature","geometry":{"type":"Point","coordinates":[-1.9701934,52.4964344]},"properties":{"name":"Smethwick Rolfe Street","naptan:AtcoCode":"9100SMTHKRS","network":"National Rail","public_transport":"station","railway":"station","ref:crs":"SMR","west_midlands_fare_zone":"2","wikidata":"Q2274385","wikipedia":"en:Smethwick Rolfe Street railway station"}},
{"type":"Feature","geometry":{"type":"Point","coordinates":[-0.3085949,51.5703765]},"properties":{"fare_zone":"4","line":"Bakerloo","name":"South Kenton","naptan:AtcoCode":"9100SKENTON","network":"London Underground;London Overground","network:subway":"London Overground","network:train":"London Overground","operator":"Transport for London","public_transport":"station","railway":"station","ref:crs":"SOK","ref:stanox":"72009","ref:tiploc":"SKENTON","source":"NPE","source:network":"Sign","source_ref":"http://en.wikipedia.org/wiki/List_of_London_Underground_stations;http://en.wikipedia.org/wiki/London_Overground#Stations","station":"subway","subway":"yes","wheelchair":"no","wikidata":"Q801454","wikipedia":"en:South Kenton station"}},
{"type":"Feature","geometry":{"type":"Point","coordinates":[-0.3038698,51.5624017]},"properties":{"fare_zone":"4","line":"Bakerloo","name":"North Wembley","naptan:AtcoCode":"9100NWEMBLY","network":"London Underground;London Overground","network:subway":"London Overground","network:train":"London Overground","operator":"Transport for London","public_transport":"station","railway":"station","ref:crs":"NWB","ref:stanox":"72010","ref:tiploc":"NWEMBLY","source":"NPE","source:network":"Sign","source_ref":"http://en.wikipedia.org/wiki/List_of_London_Underground_stations;http://en.wikipedia.org/wiki/London_Overground#Stations","station":"subway","subway":"yes","wheelchair":"no","wikidata":"Q730267","wikipedia":"en:North Wembley station"}},
{"type":"Feature","geometry":{"type":"Point","coordinates":[-1.8251247,52.6802201]},"properties":{"name":"Lichfield City","naptan:AtcoCode":"9100LCHC","network":"National Rail","public_transport":"station","railway":"station","ref:crs":"LIC","source":"NPE","train":"yes","wikidata":"Q1924638","wikipedia":"en:Lichfield City railway station"}},
{"type":"Feature","geometry":{"type":"Point","coordinates":[-1.9371251,52.7545973]},"properties":{"name":"Rugeley Town","naptan:AtcoCode":"9100RUGLTWN","network":"National Rail","public_transport":"station","railway":"station","ref:crs":"RGT","source":"NPE","west_midlands_fare_zone":"5","wikidata":"Q2649169","wikipedia":"en:Rugeley Town railway station"}},
{"type":"Feature","geometry":{"type":"Point","coordinates":[-2.2988432,53.0930252]},"properties":{"addr:postcode":"ST7 2XW","addr:street":"Sandbach Road","name":"Alsager","naptan:AtcoCode":"9100ALSAGER","network":"National Rail","public_transport":"station","railway":"station","ref:crs":"ASG","source":"NPE","wikipedia":"en:Alsager railway station"}},
{"type":"Feature","geometry":{"type":"Point","coordinates":[-1.9924997,52.3609702]},"properties":{"name":"Barnt Green","naptan:AtcoCode":"9100BGRN","network":"National Rail","public_transport":"station","railway":"station","ref:crs":"BTG","source":"NPE","wikidata":"Q2658226","wikipedia":"en:Barnt Green railway station"}},
{"type":"Feature","geometry":{"type":"Point","coordinates":[-2.1583391,52.2683805]},"properties":{"name":"Droitwich Spa","naptan:AtcoCode":"9100DRTWCHS","network":"National Rail","operator":"London Midland","platforms":"2","public_transport":"station","railway":"station","ref:crs":"DTW","train":"yes","wikidata":"Q2360854","wikipedia":"en:Droitwich Spa railway station"}},
{"type":"Feature","geometry":{"type":"Point","coordinates":[-2.1193938,52.7236965]},"properties":{"name":"Penkridge","naptan:AtcoCode":"9100PNKRDG","network":"National Rail","public_transport":"station","railway":"station","ref:crs":"PKG","source":"NPE","wikidata":"Q2547278","wikipedia":"en:Penkridge railway station"}},
{"type":"Feature","geometry":{"type":"Point","coordinates":[-1.9909844,52.5630075]},"properties":{"name":"Bescot Stadium","naptan:AtcoCode":"9100BSCTSTA","network":"National Rail","public_transport":"station","railway":"station","ref:crs":"BSC","source":"NPE","west_midlands_fare_zone":"4","wikidata":"Q4896204","wikipedia":"en:Bescot Stadium railway station"}},
{"type":"Feature","geometry":{"type":"Point","coordinates":[-1.9759632,52.5522427]},"properties":{"name":"Tame Bridge Parkway","naptan:AtcoCode":"9100TAMEBDG","network":"National Rail","public_transport":"station","railway":"station","ref:crs":"TAB","west_midlands_fare_zone":"4","wikidata":"Q1881868","wikipedia":"en:Tame Bridge Parkway railway station"}},
{"type":"Feature","geometry":{"type":"Point","coordinates":[-1.9023511,52.516406]},"properties":{"name":"Perry Barr","naptan:AtcoCode":"9100PRYBR","network":"National Rail","public_transport":"station","railway":"station","ref:crs":"PRY","train":"yes","west_midlands_fare_zone":"2","wikidata":"Q2113907","wikimedia_commons":"Category:Perry Barr railway station","wikipedia":"en:Perry Barr railway station"}},
{"type":"Feature","geometry":{"type":"Point","coordinates":[-0.266464,52.0258212]},"properties":{"name":"Arlesey","naptan:AtcoCode":"9100ARLSEY","network":"National Rail","public_transport":"station","railway":"station","ref:crs":"ARL","ref:tiploc":"ARLSEY","source:name":"local knowledge","wikidata":"Q4567224","wikipedia":"en:Arlesey railway station"}},
{"type":"Feature","geometry":{"type":"Point","coordinates":[0.6100124,50.9186255]},"properties":{"name":"Doleham","naptan:AtcoCode":"9100DOLEHAM","network":"National Rail","network:wikidata":"Q26334","public_transport":"station","railway":"station","ref:crs":"DLH","train":"yes","wheelchair":"yes","wikidata":"Q2174016","wikipedia":"en:Doleham railway station"}},
{"type":"Feature","geometry":{"type":"Point","coordinates":[0.5768255,50.8583028]},"properties":{"addr:city":"Hastings","name":"Hastings","naptan:AtcoCode":"9100HASTING","network":"National Rail","network:wikidata":"Q26334","public_transport":"station","railway":"station","ref:crs":"HGS","train":"yes","wikidata":"Q2556633","wikimedia_commons":"Category:Hastings railway station","wikipedia":"en:Hastings railway station"}},
{"type":"Feature","geometry":{"type":"Point","coordinates":[-2.9422803,51.3485177]},"properties":{"name":"Weston Milton","naptan:AtcoCode":"9100WMILTON","network":"National Rail","network:wikidata":"Q26334","operator":"GWR","public_transport":"station","railway":"station","ref:crs":"WNM","source":"NPE + GPX","train":"yes","wikidata":"Q2432877","wikipedia":"en:Weston Milton railway station"}},
{"type":"Feature","geometry":{"type":"Point","coordinates":[-2.8277046,51.3908826]},"properties":{"name":"Yatton","naptan:AtcoCode":"9100YATTON","network":"National Rail","operator":"GWR","platforms":"2","public_transport":"station","railway":"station","ref:crs":"YAT","source":"NPE + GPX","wikidata":"Q1957149","wikipedia":"en:Yatton railway station"}},
{"type":"Feature","geometry":{"type":"Point","coordinates":[-2.9718305,51.344496]},"properties":{"name":"Weston-super-Mare","naptan:AtcoCode":"9100WSMARE","network":"National Rail","network:wikidata":"Q26334","public_transport":"station","railway":"station","ref:crs":"WSM","source":"NPE","train":"yes","wikidata":"Q2335883","wikipedia":"en:Weston-super-Mare railway station"}},
{"type":"Feature","geometry":{"type":"Point","coordinates":[-3.5021627,50.7313015]},"properties":{"name":"Polsloe Bridge","naptan:AtcoCode":"9100POLSBDG","network":"National Rail","network:wikidata":"Q26334","public_transport":"station","railway":"station","ref:crs":"POL","train":"yes","wheelchair":"no","wikidata":"Q2782711","wikipedia":"en:Polsloe Bridge railway station"}},
{"type":"Feature","geometry":{"type":"Point","coordinates":[-3.4637875,50.685645]},"properties":{"name":"Topsham","name:be":"Топшам","name:en":"Topsham","name:ru":"Топшем","naptan:AtcoCode":"9100TOPSHAM","network":"National Rail","operator":"First Great Western","public_transport":"station","railway":"station","ref:crs":"TOP","source":"NPE + GPX","wheelchair":"yes","wikidata":"Q1990205","wikipedia":"en:Topsham railway station"}},
{"type":"Feature","geometry":{"type":"Point","coordinates":[-3.4440694,50.6680325]},"properties":{"name":"Exton","naptan:AtcoCode":"9100EXTON","network":"National Rail","public_transport":"station","railway":"station","ref:crs":"EXN","request_stop":"yes","wikidata":"Q4553827","wikipedia":"en:Exton railway station"}},
{"type":"Feature","geometry":{"type":"Point","coordinates":[-3.4409796,50.6625937]},"properties":{"name":"Lympstone Commando","naptan:AtcoCode":"9100LYMPSTC","network":"National Rail","public_transport":"station","railway":"station","ref:crs":"LYC","request_stop":"yes","train":"yes","wikidata":"Q1977209","wikipedia":"en:Lympstone Commando railway station"}},
{"type":"Feature","geometry":{"type":"Point","coordinates":[-3.4149555,50.621614]},"properties":{"name":"Exmouth","name:en":"Exmouth","name:lt":"Eksmutas","naptan:AtcoCode":"9100EXMOUTH","network":"National Rail","public_transport":"station","railway":"station","ref:crs":"EXM","train":"yes","wikidata":"Q2681544","wikipedia":"en:Exmouth railway station"}},
{"type":"Feature","geometry":{"type":"Point","coordinates":[-2.3195676,52.1258094]},"properties":{"addr:postcode":"WR14 1SW","name":"Malvern Link","naptan:AtcoCode":"9100MLVRNLK","network":"National Rail","public_transport":"station","railway":"station","ref:crs":"MVL","source":"NPE","wikidata":"Q2657768","wikipedia":"en:Malvern Link railway station"}},
{"type":"Feature","geometry":{"type":"Point","coordinates":[-1.3277225,51.0221625]},"properties":{"name":"Shawford","naptan:AtcoCode":"9100SHAWFD","network":"National Rail","network:wikidata":"Q26334","public_transport":"station","railway":"station","ref:crs":"SHW","train":"yes","wikidata":"Q3295440","wikipedia":"en:Shawford railway station"}},
{"type":"Feature","geometry":{"type":"Point","coordinates":[-2.1767711,52.4064788]},"properties":{"name":"Blakedown","naptan:AtcoCode":"9100BLAKEDN","network":"National Rail","operator":"London Midland","public_transport":"station","railway":"station","ref:crs":"BKD","source":"NPE","train":"yes","wikidata":"Q2171050","wikipedia":"en:Blakedown railway station"}},
{"type":"Feature","geometry":{"type":"Point","coordinates":[-2.1465358,52.4224267]},"properties":{"name":"Hagley","naptan:AtcoCode":"9100HAGLEY","network":"National Rail","public_transport":"station","railway":"station","ref:crs":"HAG","source":"NPE","wikidata":"Q2763246","wikipedia":"en:Hagley railway station"}},
{"type":"Feature","geometry":{"type":"Point","coordinates":[-2.1340314,52.4476157]},"properties":{"name":"Stourbridge Junction","naptan:AtcoCode":"9100STRBDGJ","network":"National Rail","public_transport":"station","railway":"station","ref:crs":"SBJ","source":"NPE","west_midlands_fare_zone":"5","wikidata":"Q2045806","wikipedia":"en:Stourbridge Junction railway station"}},
{"type":"Feature","geometry":{"type":"Point","coordinates":[-2.1419647,52.4556424]},"properties":{"name":"Stourbridge Town","naptan:AtcoCode":"9100STRBDGT","network":"National Rail","public_transport":"station","railway":"station","ref:crs":"SBT","source":"NPE","west_midlands_fare_zone":"5","wikidata":"Q2746016","wikipedia":"en:Stourbridge Town railway station"}},
{"type":"Feature","geometry":{"type":"Point","coordinates":[-2.1160497,52.4599417]},"properties":{"name":"Lye","naptan:AtcoCode":"9100LYEE","network":"National Rail","public_transport":"station","railway":"station","ref:crs":"LYE","source":"NPE","west_midlands_fare_zone":"5","wikidata":"Q2044178","wikipedia":"en:Lye railway station"}},
{"type":"Feature","geometry":{"type":"Point","coordinates":[-2.0906252,52.4694408]},"properties":{"name":"Cradley Heath","naptan:AtcoCode":"9100CRADLYH","network":"National Rail","public_transport":"station","railway":"station","ref:crs":"CRA","source":"NPE","west_midlands_fare_zone":"5","wikidata":"Q1924927","wikipedia":"en:Cradley Heath railway station"}},
{"type":"Feature","geometry":{"type":"Point","coordinates":[-2.0308221,52.4774198]},"properties":{"name":"Rowley Regis","naptan:AtcoCode":"9100ROWLEYR","network":"National Rail","operator":"London Midland","public_transport":"station","railway":"station","ref:crs":"ROW","source":"NPE","west_midlands_fare_zone":"3","wheelchair":"yes","wikidata":"Q2497234","wikipedia":"en:Rowley Regis railway station"}},
{"type":"Feature","geometry":{"type":"Point","coordinates":[-2.0054314,52.4934857]},"properties":{"name":"Langley Green","naptan:AtcoCode":"9100LGRN","network":"National Rail","public_transport":"station","railway":"station","ref:crs":"LGG","source":"NPE","west_midlands_fare_zone":"3","wikidata":"Q2390772","wikipedia":"en:Langley Green railway station"}},
{"type":"Feature","geometry":{"type":"Point","coordinates":[0.0091415,52.0908316]},"properties":{"name":"Meldreth","naptan:AtcoCode":"9100MELDRTH","network":"National Rail","public_transport":"station","railway":"station","ref:crs":"MEL","wikidata":"Q2915277","wikipedia":"en:Meldreth railway station"}},
{"type":"Feature","geometry":{"type":"Point","coordinates":[-2.3066603,52.3757574]},"properties":{"name":"Bewdley","naptan:AtcoCode":"940GZZSVBEW","network":"Severn Valley Railway","operator":"Severn Valley Railway","platforms":"3","public_transport":"station","railway":"station","source":"NPE","usage":"tourism","wikidata":"Q4899741"}},
{"type":"Feature","geometry":{"type":"Point","coordinates":[-2.3275672,52.3947134]},"properties":{"name":"Northwood Halt","operator":"Severn Valley Railway","platforms":"1","public_transport":"station","railway":"station","request_stop":"yes","source":"NPE","usage":"tourism","wikidata":"Q7060470"}},
{"type":"Feature","geometry":{"type":"Point","coordinates":[-2.3488657,52.4171608]},"properties":{"name":"Arley","naptan:AtcoCode":"940GZZSVARL","network":"Severn Valley Railway","operator":"Severn Valley Railway","platforms":"2","public_transport":"station","railway":"station","source":"NPE","usage":"tourism"}},
{"type":"Feature","geometry":{"type":"Point","coordinates":[-2.3771788,52.4738899]},"properties":{"name":"Hampton Loade","naptan:AtcoCode":"940GZZSVHLD","network":"Severn Valley Railway","operator":"Severn Valley Railway","platforms":"2","public_transport":"station","railway":"station","source":"NPE","usage":"tourism"}},
{"type":"Feature","geometry":{"type":"Point","coordinates":[-2.3705819,52.444908]},"properties":{"name":"Highley","naptan:AtcoCode":"940GZZSVHIG","network":"Severn Valley Railway","note":"Name from nearby village","operator":"Severn Valley Railway","platforms":"1","public_transport":"station","railway":"station","source":"NPE","usage":"tourism","wikidata":"Q5759466"}},
{"type":"Feature","geometry":{"type":"Point","coordinates":[-0.4585987,51.9054737]},"properties":{"name":"Leagrave","naptan:AtcoCode":"9100LEAGRVE","network":"National Rail","public_transport":"station","railway":"station","ref:crs":"LEA","wheelchair":"no","wikidata":"Q12061118","wikipedia":"en:Leagrave railway station"}},
{"type":"Feature","geometry":{"type":"Point","coordinates":[-1.2659524,50.8757192]},"properties":{"addr:city":"Southampton","addr:country":"GB","addr:postcode":"SO31 1BA","name":"Swanwick","naptan:AtcoCode":"9100SWNWICK","network":"National Rail","public_transport":"station","railway":"station","ref:crs":"SNW","wikidata":"Q2765966","wikipedia":"en:Swanwick railway station"}},
{"type":"Feature","geometry":{"type":"Point","coordinates":[-2.0230749,51.6767954]},"properties":{"name":"Kemble","naptan:AtcoCode":"9100KEMBLE","network":"National Rail","public_transport":"station","railway":"station","ref:crs":"KEM","source":"survey","wheelchair":"yes","wikidata":"Q1877761","wikipedia":"en:Kemble railway station"}},
{"type":"Feature","geometry":{"type":"Point","coordinates":[-0.3361942,51.558533]},"properties":{"name":"Sudbury Hill Harrow","naptan:AtcoCode":"9100SDBRYHH","network":"National Rail","operator":"Chiltern Railways","public_transport":"station","railway":"station","ref:crs":"SDH","wheelchair":"no","wikidata":"Q941324","wikipedia":"en:Sudbury Hill Harrow railway station"}},
{"type":"Feature","geometry":{"type":"Point","coordinates":[-2.2191762,51.7444813]},"properties":{"name":"Stroud","naptan:AtcoCode":"9100STRUD","network":"National Rail","network:wikidata":"Q26334","postal_code":"GL5 3AP","public_transport":"station","railway":"station","ref:crs":"STD","source":"NPE","train":"yes","wheelchair":"yes","wikidata":"Q3079073","wikipedia":"en:Stroud railway station"}},
{"type":"Feature","geometry":{"type":"Point","coordinates":[-2.2794209,51.7459341]},"properties":{"name":"Stonehouse","naptan:AtcoCode":"9100STNHSE","network":"National Rail","postal_code":"GL10 2JW","railway":"station","ref:crs":"SHU","source":"NPE","wheelchair":"yes","wikidata":"Q1992485","wikipedia":"en:Stonehouse railway station"}},
{"type":"Feature","geometry":{"type":"Point","coordinates":[-1.4830687,50.9176659]},"properties":{"alt_name":"Totton Rail Station","name":"Totton","naptan:AtcoCode":"9100TOTTON","network":"National Rail","old_name":"Totton and Eling","postal_code":"SO40 3AB","public_transport":"station","railway":"station","ref:crs":"TTN","wikidata":"Q2008136","wikipedia":"en:Totton railway station"}},
{"type":"Feature","geometry":{"type":"Point","coordinates":[-1.2272134,53.8270101]},"properties":{"name":"Church Fenton","naptan:AtcoCode":"9100CHFN","network":"National Rail","public_transport":"station","railway":"station","ref:crs":"CHF","source":"npe","wikidata":"Q3489838","wikipedia":"en:Church Fenton railway station"}},
{"type":"Feature","geometry":{"type":"Point","coordinates":[-0.1597188,51.4356228]},"properties":{"fare_zone":"3","line":"Northern","name":"Tooting Bec","name:ru":"Тутинг-Бек","naptan:AtcoCode":"940GZZLUTBC","network":"London Underground","public_transport":"station","railway":"station","station":"subway","subway":"yes","wheelchair":"no","wikidata":"Q1424421","wikipedia":"en:Tooting Bec tube station"}},
{"type":"Feature","geometry":{"type":"Point","coordinates":[-1.5779212,53.8121567]},"properties":{"name":"Burley Park","naptan:AtcoCode":"9100BRLEYPK","network":"National Rail","platforms":"2","public_transport":"station","railway":"station","ref:crs":"BUY","wikidata":"Q3298380","wikipedia":"en:Burley Park railway station"}},
{"type":"Feature","geometry":{"type":"Point","coordinates":[-1.0195165,54.5873806]},"properties":{"name":"Marske","naptan:AtcoCode":"9100MRSK","network":"National Rail","railway":"station","ref:crs":"MSK","ref:stanox":"15668","ref:tiploc":"MRSK","uic_ref":"7001509","wikidata":"Q951534","wikipedia":"en:Marske railway station"}},
{"type":"Feature","geometry":{"type":"Point","coordinates":[-0.1299205,51.4651241]},"properties":{"fare_zone":"2","line":"Northern","name":"Clapham North","name:ru":"Клэпхем-Норт","naptan:AtcoCode":"940GZZLUCPN","network":"London Underground","operator":"London Underground","public_transport":"station","railway":"station","station":"subway","subway":"yes","wheelchair":"no","wikidata":"Q1095082","wikipedia":"en:Clapham North tube station"}},
{"type":"Feature","geometry":{"type":"Point","coordinates":[-0.1123953,51.4818339]},"properties":{"fare_zone":"2","line":"Northern","name":"Oval","name:ru":"Овал","naptan:AtcoCode":"940GZZLUOVL","network":"London Underground","public_transport":"station","railway":"station","station":"subway","subway":"yes","wheelchair":"no","wikidata":"Q426804","wikimedia_commons":"Category:Oval tube station","wikipedia":"en:Oval tube station"}},
{"type":"Feature","geometry":{"type":"Point","coordinates":[-0.1058829,51.4882861]},"properties":{"fare_zone":"1;2","line":"Northern","name":"Kennington","name:ru":"Кеннингтон","naptan:AtcoCode":"940GZZLUKNG","network":"London Underground","public_transport":"station","railway":"station","source_ref":"http://en.wikipedia.org/wiki/List_of_London_Underground_stations#cite_note-usage-6","station":"subway","subway":"yes","wheelchair":"no","wheelchair:description":"Cross-platform interchange in same direction only. No entry or exit.","wikidata":"Q1738951","wikipedia":"en:Kennington tube station"}},
{"type":"Feature","geometry":{"type":"Point","coordinates":[-2.2219984,53.4093155]},"properties":{"name":"East Didsbury","naptan:AtcoCode":"9100EDIDBRY","network":"National Rail","public_transport":"station","railway":"station","ref:crs":"EDY","wikipedia":"en:East Didsbury railway station"}},
{"type":"Feature","geometry":{"type":"Point","coordinates":[-0.074968,51.5452841]},"properties":{"addr:street":"Dalston Lane","electrified":"rail","name":"Dalston Junction","name:fr":"Gare de Dalston Junction","naptan:AtcoCode":"9100DALS","network":"London Overground","operator":"London Overground","platforms":"4","public_transport":"station","railway":"station","ref:crs":"DLJ","source_ref":"http://en.wikipedia.org/wiki/List_of_London_railway_stations;http://en.wikipedia.org/wiki/London_Overground#Stations","train":"yes","wheelchair":"yes","wheelchair:description":"Wide gates, lift down to all plaforms, Radar key operated wheelchair accessible toilet near lift at ticket hall level. Step-free from platform to train.","wikidata":"Q800651","wikipedia":"en:Dalston Junction railway station"}},
{"type":"Feature","geometry":{"type":"Point","coordinates":[-1.3711055,52.5351729]},"properties":{"name":"Hinckley","naptan:AtcoCode":"9100HINCKLY","network":"National Rail","postal_code":"LE10 1UE","public_transport":"station","railway":"station","ref:crs":"HNK","source":"GPS waypoint","train":"yes","upload_tag":"ojw_bham","wheelchair":"yes","wikidata":"Q2733409","wikipedia":"en:Hinckley railway station"}},
{"type":"Feature","geometry":{"type":"Point","coordinates":[-1.2402569,51.6856231]},"properties":{"name":"Radley","naptan:AtcoCode":"9100RDLEY","network":"National Rail","public_transport":"station","railway":"station","ref:crs":"RAD","wikidata":"Q4386081","wikipedia":"en:Radley railway station"}},
{"type":"Feature","geometry":{"type":"Point","coordinates":[-1.8007743,53.6348054]},"properties":{"name":"Lockwood","naptan:AtcoCode":"9100LKWD","network":"National Rail","railway":"station","ref:crs":"LCK","source":"npe","wikipedia":"en:Lockwood railway station"}},
{"type":"Feature","geometry":{"type":"Point","coordinates":[-1.7935857,53.6210459]},"properties":{"name":"Berry Brow","naptan:AtcoCode":"9100BERRYB","network":"National Rail","operator":"Northern","railway":"station","ref:crs":"BBW","source":"npe","wikipedia":"en:Berry Brow railway station"}},
{"type":"Feature","geometry":{"type":"Point","coordinates":[-1.780828,53.6082445]},"properties":{"name":"Honley","naptan:AtcoCode":"9100HONLEY","network":"National Rail","railway":"station","ref:crs":"HOY","source":"npe","wikipedia":"en:Honley railway station"}},
{"type":"Feature","geometry":{"type":"Point","coordinates":[-1.7698266,53.5970261]},"properties":{"name":"Brockholes","naptan:AtcoCode":"9100BKHLS","network":"National Rail","railway":"station","ref:crs":"BHS","source":"npe","wikipedia":"en:Brockholes railway station"}},
{"type":"Feature","geometry":{"type":"Point","coordinates":[-1.663204,53.5728721]},"properties":{"name":"Denby Dale","naptan:AtcoCode":"9100DNDL","network":"National Rail","public_transport":"station","railway":"station","ref:crs":"DBD","wikipedia":"en:Denby Dale railway station"}},
{"type":"Feature","geometry":{"type":"Point","coordinates":[-1.6223537,53.5253151]},"properties":{"name":"Penistone","naptan:AtcoCode":"9100PENISTN","network":"National Rail","public_transport":"station","railway":"station","ref:crs":"PNS","wikidata":"Q2001260","wikipedia":"en:Penistone railway station"}},
{"type":"Feature","geometry":{"type":"Point","coordinates":[-1.5630289,53.5353509]},"properties":{"name":"Silkstone Common","naptan:AtcoCode":"9100SKSCMN","network":"National Rail","public_transport":"station","railway":"station","ref:crs":"SLK","wikidata":"Q1882359","wikipedia":"en:Silkstone Common railway station"}},
{"type":"Feature","geometry":{"type":"Point","coordinates":[-0.8179843,53.5898466]},"properties":{"name":"Crowle","naptan:AtcoCode":"9100CROWLE","network":"National Rail","operator":"Northern Rail","public_transport":"station","railway":"station","ref:crs":"CWE","source":"NPE","wikidata":"Q961797","wikipedia":"en:Crowle railway station"}},
{"type":"Feature","geometry":{"type":"Point","coordinates":[-0.732955,53.5855457]},"properties":{"name":"Althorpe","naptan:AtcoCode":"9100ALTPE","network":"National Rail","operator":"Northern Rail","public_transport":"station","railway":"station","ref:crs":"ALP","source":"NPE","wikidata":"Q4736675","wikipedia":"en:Althorpe railway station"}},
{"type":"Feature","geometry":{"type":"Point","coordinates":[-0.4097613,53.5750127]},"properties":{"name":"Barnetby","naptan:AtcoCode":"9100BNTBY","network":"National Rail","operator":"First TransPennine Express","public_transport":"station","railway":"station","ref:crs":"BTB","source":"npe","wikidata":"Q1861647","wikipedia":"en:Barnetby railway station"}},
{"type":"Feature","geometry":{"type":"Point","coordinates":[-0.4857584,53.5490517]},"properties":{"addr:city":"Brigg","addr:postcode":"DN20 8HX","addr:street":"Station Road","name":"Brigg","naptan:AtcoCode":"9100BRGG","network":"National Rail","operator":"Northern Rail","public_transport":"station","railway":"station","ref:crs":"BGG","source":"Bing","wikidata":"Q2549335","wikipedia":"en:Brigg railway station"}},
{"type":"Feature","geometry":{"type":"Point","coordinates":[-0.5935507,53.4852618]},"properties":{"name":"Kirton Lindsey","naptan:AtcoCode":"9100KRTNLND","network":"National Rail","operator":"Northern Rail","public_transport":"station","railway":"station","ref:crs":"KTL","source":"NPE","wikidata":"Q3060156","wikipedia":"en:Kirton Lindsey railway station"}},
{"type":"Feature","geometry":{"type":"Point","coordinates":[-1.9488416,53.8313183]},"properties":{"name":"Haworth","naptan:AtcoCode":"940GZZKWHAW","public_transport":"station","railway":"station","usage":"tourism","wikidata":"Q5685412","wikipedia":"en:Haworth railway station"}},
{"type":"Feature","geometry":{"type":"Point","coordinates":[-1.9419575,53.8413266]},"properties":{"name":"Oakworth","naptan:AtcoCode":"940GZZKWOAK","public_transport":"station","railway":"station","source":"OS 1:25k","usage":"tourism","wikidata":"Q7074337","wikipedia":"en:Oakworth railway station"}},
{"type":"Feature","geometry":{"type":"Point","coordinates":[-1.924448,53.8459194]},"properties":{"name":"Damems","naptan:AtcoCode":"940GZZKWDMM","railway":"station","usage":"tourism","wikidata":"Q5212155","wikipedia":"en:Damems railway station"}},
{"type":"Feature","geometry":{"type":"Point","coordinates":[-1.9151443,53.8536646]},"properties":{"name":"Ingrow (West)","naptan:AtcoCode":"940GZZKWIGN","public_transport":"station","railway":"station","usage":"tourism","wikidata":"Q6033350","wikipedia":"en:Ingrow (West) railway station"}},
{"type":"Feature","geometry":{"type":"Point","coordinates":[-1.7536925,53.8501789]},"properties":{"name":"Baildon","naptan:AtcoCode":"9100BAILDON","network":"National Rail","railway":"station","ref:crs":"BLD","source":"NPE","wikidata":"Q4475770","wikipedia":"en:Baildon railway station"}},
{"type":"Feature","geometry":{"type":"Point","coordinates":[-2.5886798,51.4683479]},"properties":{"addr:city":"Bristol","addr:street":"Station Road","name":"Montpelier","naptan:AtcoCode":"9100MONPELR","network":"National Rail","operator":"Great Western Railway","railway":"station","ref:crs":"MTP","wikidata":"Q962430","wikipedia":"en:Montpelier railway station"}},
{"type":"Feature","geometry":{"type":"Point","coordinates":[-2.2551519,54.0166575]},"properties":{"name":"Long Preston","naptan:AtcoCode":"9100LPRESTN","network":"National Rail","old_ref":"NPE + GPX","public_transport":"station","railway":"station","ref:crs":"LPR","wikipedia":"en:Long Preston railway station"}},
{"type":"Feature","geometry":{"type":"Point","coordinates":[-2.4488239,53.8048112]},"properties":{"name":"Langho","naptan:AtcoCode":"9100LGHO","network":"National Rail","public_transport":"station","railway":"station","ref:crs":"LHO","source":"NPE","train":"yes","wikipedia":"en:Langho railway station"}},
{"type":"Feature","geometry":{"type":"Point","coordinates":[-2.4642693,53.6979355]},"properties":{"name":"Darwen","name:lt":"Darvenas","naptan:AtcoCode":"9100DARWEN","network":"National Rail","public_transport":"station","railway":"station","ref:crs":"DWN","source":"NPE","wikidata":"Q2248104","wikipedia":"en:Darwen railway station"}},
{"type":"Feature","geometry":{"type":"Point","coordinates":[-2.4139637,53.6556886]},"properties":{"addr:city":"Entwistle","addr:postcode":"BL7 0NG","addr:street":"Overshores Road","name":"Entwistle","naptan:AtcoCode":"9100ENTWISL","network":"National Rail","public_transport":"station","railway":"station","ref:crs":"ENT","request_stop":"yes","source":"npe","train":"yes","wikidata":"Q2933251","wikipedia":"en:Entwistle railway station"}},
{"type":"Feature","geometry":{"type":"Point","coordinates":[-2.3141164,53.5223155]},"properties":{"name":"Clifton","naptan:AtcoCode":"9100CLTN","network":"National Rail","operator":"Northern","public_transport":"station","railway":"station","ref:crs":"CLI","ref:tiploc":"CLTN","train":"yes","wikidata":"Q2708119","wikipedia":"en:Clifton railway station (Greater Manchester)"}},
{"type":"Feature","geometry":{"type":"Point","coordinates":[-0.0883292,51.4541783]},"properties":{"name":"North Dulwich","name:ru":"Норт-Далвич","naptan:AtcoCode":"9100NDULWCH","network":"National Rail","public_transport":"station","railway":"station","ref:crs":"NDL","wheelchair":"no","wikidata":"Q2105973","wikipedia":"en:North Dulwich railway station"}},
{"type":"Feature","geometry":{"type":"Point","coordinates":[-2.5663184,51.467446]},"properties":{"name":"Stapleton Road","naptan:AtcoCode":"9100STPLTNR","network":"National Rail","railway":"station","ref:crs":"SRD","source":"NPE","wikidata":"Q2537961","wikipedia":"en:Stapleton Road railway station"}},
{"type":"Feature","geometry":{"type":"Point","coordinates":[-2.56417,51.45858]},"properties":{"addr:city":"Bristol","addr:postcode":"BS5 0AF","addr:street":"Church Road","name":"Lawrence Hill","naptan:AtcoCode":"9100LAWRNCH","network":"National Rail","railway":"station","ref:crs":"LWH","wheelchair":"limited","wikidata":"Q4785868","wikipedia":"en:Lawrence Hill railway station"}},
{"type":"Feature","geometry":{"type":"Point","coordinates":[-2.5698672,53.5912146]},"properties":{"air_conditioning":"no","internet_access":"no","name":"Blackrod","naptan:AtcoCode":"9100BLRD","network":"National Rail","operator":"Northern Rail","public_transport":"station","railway":"station","ref:crs":"BLK","ref:tiploc":"BLRD","train":"yes","wheelchair":"yes","wikidata":"Q1820371","wikipedia":"en:Blackrod railway station"}},
{"type":"Feature","geometry":{"type":"Point","coordinates":[-2.3138473,50.701118]},"properties":{"name":"Moreton","naptan:AtcoCode":"9100MORETON","network":"National Rail","railway":"station","ref:crs":"MTN","source:name":"local knowledge","wikidata":"Q2165170","wikipedia":"en:Moreton railway station (Dorset)"}},
{"type":"Feature","geometry":{"type":"Point","coordinates":[-2.2212157,50.6816539]},"properties":{"name":"Wool","naptan:AtcoCode":"9100WOOL","network":"National Rail","railway":"station","ref:crs":"WOO","source:name":"local knowledge","wikidata":"Q2547367","wikipedia":"en:Wool railway station"}},
{"type":"Feature","geometry":{"type":"Point","coordinates":[-2.9228151,53.4052171]},"properties":{"name":"Wavertree Technology Park","naptan:AtcoCode":"9100WVRTTEC","network":"National Rail","public_transport":"station","railway":"station","ref:crs":"WAV","ref:tiploc":"WVRTTEC","train":"yes","wheelchair":"yes","wikidata":"Q2969859","wikipedia":"en:Wavertree Technology Park railway station"}},
{"type":"Feature","geometry":{"type":"Point","coordinates":[-2.7251202,53.4267142]},"properties":{"name":"Lea Green","naptan:AtcoCode":"9100LEGR","network":"National Rail","public_transport":"station","railway":"station","ref:crs":"LEG","ref:tiploc":"LEGR","wheelchair":"yes","wikidata":"Q2797507","wikipedia":"en:Lea Green railway station"}},
{"type":"Feature","geometry":{"type":"Point","coordinates":[-2.7594696,53.4366896]},"properties":{"name":"Thatto Heath","naptan:AtcoCode":"9100THHT","network":"National Rail","public_transport":"station","railway":"station","ref:crs":"THH","source":"npe","wikipedia":"en:Thatto Heath railway station"}},
{"type":"Feature","geometry":{"type":"Point","coordinates":[-2.6719929,53.4880481]},"properties":{"name":"Garswood","naptan:AtcoCode":"9100GARW","network":"National Rail","public_transport":"station","railway":"station","ref:crs":"GSW","source":"npe","wikipedia":"en:Garswood railway station"}},
{"type":"Feature","geometry":{"type":"Point","coordinates":[-2.6476163,53.4997249]},"properties":{"name":"Bryn","naptan:AtcoCode":"9100BRYN","network":"National Rail","public_transport":"station","railway":"station","ref:crs":"BYN","source":"NPE","wikipedia":"en:Bryn railway station"}},
{"type":"Feature","geometry":{"type":"Point","coordinates":[-2.2306618,53.3932392]},"properties":{"name":"Gatley","naptan:AtcoCode":"9100GATLEY","network":"National Rail","public_transport":"station","railway":"station","ref:crs":"GTY","wikipedia":"en:Gatley railway station"}},
{"type":"Feature","geometry":{"type":"Point","coordinates":[-0.0237594,51.5815237]},"properties":{"name":"Walthamstow Queen's Road","naptan:AtcoCode":"9100WLTHQRD","network":"London Overground","old_name":"Walthamstow","operator":"London Overground","platforms":"2","public_transport":"station","railway":"station","ref:crs":"WMW","source_ref":"http://en.wikipedia.org/wiki/London_Overground#Stations","wheelchair":"yes","wheelchair:description":"Access from platform to train by manual boarding ramp.","wikidata":"Q2546520","wikipedia":"en:Walthamstow Queen's Road railway station"}},
{"type":"Feature","geometry":{"type":"Point","coordinates":[-0.1817423,50.8363558]},"properties":{"name":"Aldrington","naptan:AtcoCode":"9100ALDTON","network":"National Rail","operator":"Southern","railway":"station","ref:crs":"AGT","wikidata":"Q2802053","wikipedia":"en:Aldrington railway station"}},
{"type":"Feature","geometry":{"type":"Point","coordinates":[-2.6031782,53.3859367]},"properties":{"addr:street":"Parker Street","name":"Warrington Bank Quay","naptan:AtcoCode":"9100WRGTNBQ","network":"National Rail","operator":"Avanti West Coast","public_transport":"station","railway":"station","ref:crs":"WBQ","was:addr:postcode":"WA1 1LW","website":"https://www.nationalrail.co.uk/stations_destinations/wbq.aspx","wikidata":"Q2641986","wikipedia":"en:Warrington Bank Quay railway station"}},
{"type":"Feature","geometry":{"type":"Point","coordinates":[-2.3340515,53.4855266]},"properties":{"addr:postcode":"M30 0DN","addr:street":"St Mary's Road","name":"Eccles","name:lt":"Eklsas","naptan:AtcoCode":"9100ECCLES","network":"National Rail","public_transport":"station","railway":"station","ref:crs":"ECC","ref:tiploc":"ECCLES","train":"yes","wikidata":"Q2890052","wikipedia":"en:Eccles railway station"}},
{"type":"Feature","geometry":{"type":"Point","coordinates":[-1.8110345,52.4851563]},"properties":{"name":"Stechford","naptan:AtcoCode":"9100STECHFD","network":"National Rail","public_transport":"station","railway":"station","ref:crs":"SCF","source":"NPE","west_midlands_fare_zone":"3","wikidata":"Q2419238","wikipedia":"en:Stechford railway station"}},
{"type":"Feature","geometry":{"type":"Point","coordinates":[-1.786031,52.4805217]},"properties":{"name":"Lea Hall","naptan:AtcoCode":"9100LEAHALL","network":"National Rail","public_transport":"station","railway":"station","ref:crs":"LEH","west_midlands_fare_zone":"3","wikidata":"Q2499943","wikipedia":"en:Lea Hall railway station"}},
{"type":"Feature","geometry":{"type":"Point","coordinates":[-0.1345942,51.4992816]},"properties":{"fare_zone":"1","line":"District;Circle","loc_name":"Saint James Park","name":"St. James's Park","name:ru":"Сент-Джеймс Парк","naptan:AtcoCode":"940GZZLUSJP","network":"London Underground","operator":"London Underground","platforms":"2","public_transport":"station","railway":"station","station":"subway","subway":"yes","wheelchair":"no","wikidata":"Q1567095","wikipedia":"en:St. James's Park tube station"}},
{"type":"Feature","geometry":{"type":"Point","coordinates":[-1.6997231,52.4286358]},"properties":{"name":"Hampton-in-Arden","naptan:AtcoCode":"9100HMPTNIA","network":"National Rail","public_transport":"station","railway":"station","ref:crs":"HIA","source":"NPE","west_midlands_fare_zone":"5","wikidata":"Q2728174","wikipedia":"en:Hampton-in-Arden railway station"}},
{"type":"Feature","geometry":{"type":"Point","coordinates":[-0.5068108,51.5086086]},"properties":{"name":"Iver","naptan:AtcoCode":"9100IVER","network":"National Rail;Elizabeth Line","operator":"TfL Rail","public_transport":"station","railway":"station","ref:crs":"IVR","wheelchair":"yes","wheelchair:description":"Access from platform to train by manual boarding ramp.","wikidata":"Q6098724","wikipedia":"en:Iver railway station"}},
{"type":"Feature","geometry":{"type":"Point","coordinates":[-0.1249302,51.5013562]},"properties":{"fare_zone":"1","line":"District;Circle;Jubilee","name":"Westminster","name:da":"Westminster Station","name:ru":"Вестминстер","naptan:AtcoCode":"940GZZLUWSM","network":"London Underground","public_transport":"station","railway":"station","station":"subway","subway":"yes","wheelchair":"yes","wheelchair:description":"Lifts link all platforms on Jubilee and Circle/District lines. (photos to follow)","wikidata":"Q1135834","wikimedia_commons":"Category:Westminster tube station","wikipedia":"en:Westminster tube station"}},
{"type":"Feature","geometry":{"type":"Point","coordinates":[1.1826954,52.0505184]},"properties":{"name":"Derby Road","naptan:AtcoCode":"9100DERBYRD","network":"National Rail","railway":"station","ref:crs":"DBR","start_date":"1877-05-01","wikidata":"Q2353885","wikipedia":"en:Derby Road railway station"}},
{"type":"Feature","geometry":{"type":"Point","coordinates":[1.3498136,51.9670171]},"properties":{"name":"Felixstowe","naptan:AtcoCode":"9100FLXSTOW","network":"National Rail","network:wikidata":"Q26334","old_name":"Felixstowe Town","public_transport":"station","railway":"station","ref:crs":"FLX","train":"yes","wikidata":"Q3247616","wikipedia":"en:Felixstowe railway station"}},
{"type":"Feature","geometry":{"type":"Point","coordinates":[1.1659683,52.0810736]},"properties":{"name":"Westerfield","naptan:AtcoCode":"9100WSTRFLD","network":"National Rail","public_transport":"station","railway":"station","ref:crs":"WFI","start_date":"1859-06-01","wikidata":"Q1815407","wikipedia":"en:Westerfield railway station"}},
{"type":"Feature","geometry":{"type":"Point","coordinates":[-0.339152,51.3890554]},"properties":{"addr:city":"Thames Ditton","addr:postcode":"KT7 0PA","addr:street":"Station Road","baby_feeding":"no","internet_access":"no","name":"Thames Ditton","naptan:AtcoCode":"9100TDITTON","network":"National Rail","operator":"South Western Railway","public_transport":"station","railway":"station","ref:crs":"THD","website":"https://www.nationalrail.co.uk/stations/THD/details.html","wheelchair":"limited","wheelchair:description":"Long and steep ramps to both platforms from separate entrances - gradient up to 1:5 on Platform 2 side, up to 1:8 on Platform 1 side.","wikidata":"Q2476102","wikimedia_commons":"File:Thames Ditton stn look north2.JPG","wikipedia":"en:Thames Ditton railway station"}},
{"type":"Feature","geometry":{"type":"Point","coordinates":[-2.4668807,51.4439411]},"properties":{"name":"Oldland Common","naptan:AtcoCode":"940GZZAVOLD","railway":"station","usage":"tourism","wheelchair":"yes","wikidata":"Q7085686"}},
{"type":"Feature","geometry":{"type":"Point","coordinates":[-3.4946798,50.5481567]},"properties":{"electrified":"no","name":"Teignmouth","naptan:AtcoCode":"9100TEINMTH","network":"National Rail","network:wikidata":"Q26334","public_transport":"station","railway":"station","ref:crs":"TGM","source:name":"local knowledge","train":"yes","wheelchair":"no","wikidata":"Q2369625","wikipedia":"en:Teignmouth railway station"}},
{"type":"Feature","geometry":{"type":"Point","coordinates":[-0.134245,51.3220643]},"properties":{"name":"Coulsdon Town","naptan:AtcoCode":"9100SMITHAM","network":"National Rail","old_name":"Smitham","public_transport":"station","railway":"station","ref:crs":"CDN","tracks":"2","wheelchair":"yes","wikidata":"Q2136840","wikipedia":"en:Coulsdon Town railway station"}},
{"type":"Feature","geometry":{"type":"Point","coordinates":[-0.1540011,51.3189499]},"properties":{"name":"Woodmansterne","naptan:AtcoCode":"9100WDMNSTR","network":"National Rail","network:wikidata":"Q26334","public_transport":"station","railway":"station","ref:crs":"WME","train":"yes","wheelchair":"no","wikidata":"Q2737664","wikipedia":"en:Woodmansterne railway station"}},
{"type":"Feature","geometry":{"type":"Point","coordinates":[-0.2110128,51.2947257]},"properties":{"name":"Kingswood","naptan:AtcoCode":"9100KGWD","network":"National Rail","public_transport":"station","railway":"station","ref:crs":"KND","wheelchair":"yes","wikidata":"Q2192379","wikipedia":"en:Kingswood railway station"}},
{"type":"Feature","geometry":{"type":"Point","coordinates":[-0.1234118,51.3311273]},"properties":{"name":"Reedham","naptan:AtcoCode":"9100REEDHMS","network":"National Rail","postal_code":"CR8 4DJ","public_transport":"station","railway":"station","ref:crs":"RHM","wheelchair":"limited","wheelchair:description":"Level access to platform 2 (to Tattenham Corner). Steps to platform 1 (to London).","wikidata":"Q1972220","wikipedia":"en:Reedham railway station (London)"}},
{"type":"Feature","geometry":{"type":"Point","coordinates":[1.4181588,52.6233603]},"properties":{"name":"Brundall Gardens","naptan:AtcoCode":"9100BRUNDLG","network":"National Rail","railway":"station","ref:crs":"BGA","source":"NPE","wikidata":"Q2262602","wikipedia":"en:Brundall Gardens railway station"}},
{"type":"Feature","geometry":{"type":"Point","coordinates":[-2.4958797,51.418071]},"properties":{"name":"Keynsham","naptan:AtcoCode":"9100KEYNSHM","network":"National Rail","public_transport":"station","railway":"station","ref:crs":"KYN","wikidata":"Q2658052","wikipedia":"en:Keynsham railway station"}},
{"type":"Feature","geometry":{"type":"Point","coordinates":[-2.6114362,51.4644315]},"properties":{"name":"Clifton Down","naptan:AtcoCode":"9100CLFDOWN","network":"National Rail","railway":"station","ref:crs":"CFN","wheelchair":"yes","wikidata":"Q2462275","wikipedia":"en:Clifton Down railway station"}},
{"type":"Feature","geometry":{"type":"Point","coordinates":[-0.4676146,52.1293364]},"properties":{"name":"Bedford St Johns","naptan:AtcoCode":"9100BESJOHN","network":"National Rail","network:wikidata":"Q26334","public_transport":"station","railway":"station","ref:crs":"BSJ","train":"yes","wikidata":"Q2567167","wikimedia_commons":"Category:Bedford St Johns railway station","wikipedia":"en:Bedford St Johns railway station"}},
{"type":"Feature","geometry":{"type":"Point","coordinates":[-3.5388213,50.717201]},"properties":{"electrified":"no","name":"Exeter St Thomas","naptan:AtcoCode":"9100EXETRST","network":"National Rail","network:wikidata":"Q26334","public_transport":"station","railway":"station","ref:crs":"EXT","train":"yes","wheelchair":"no","wikidata":"Q1928272","wikipedia":"en:Exeter St Thomas railway station"}},
{"type":"Feature","geometry":{"type":"Point","coordinates":[-1.1025399,51.0874683]},"properties":{"name":"Ropley","naptan:AtcoCode":"940GZZMHROP","operator":"The Mid Hants Railway 'Watercress Line'","public_transport":"station","railway":"station","usage":"tourism","website":"https://www.watercressline.co.uk/","wikidata":"Q7366762"}},
{"type":"Feature","geometry":{"type":"Point","coordinates":[-2.3801898,51.379219]},